time,timestamp,recordtime,lat,long,alt,speed,course,verticalAccuracy,horizontalAccuracy,locTimeStamp,accelerationX,accelerationY,accelerationZ,HeadingX,HeadingY,HeadingZ,TrueHeading,MagneticHeading,HeadingAccuracy,RotationX,RotationY,RotationZ,motionYaw,motionRoll,motionPitch,motionRotationRateX,motionRotationRateY,motionRotationRateZ,motionUserAccelerationX,motionUserAccelerationY,motionUserAccelerationZ,Event
2013-09-19 16:58:24.553,1,0.02,51.03926,13.79346,121,0,142.0312,6,5,1379602703,0.1772461,-0.4707947,-0.8652344,-10.81094,-16.52972,-38.8764,98.83125,95.69286,15,-0.2517161,-0.2851537,-0.5601647,-2.840681,0.226965,0.3517963,-0.1805094,-0.245064,-0.4068886,-0.1105168,-0.124974,-0.08432843,2
2013-09-19 16:58:24.591,2,0.04,51.03926,13.79346,121,0,142.0312,6,5,1379602703,0.1695251,-0.4858093,-0.8991089,-10.81094,-16.52972,-38.8764,98.83125,95.69286,15,-1.077435,-1.596719,-0.6237869,-2.85722,0.2028076,0.325974,-0.9793276,-1.421741,-0.4673259,0.04730016,-0.176564,-0.009332388,2
2013-09-19 16:58:24.606,3,0.06,51.03926,13.79346,121,0,142.0312,6,5,1379602703,0.2781982,-0.3259888,-1.16011,-12.08858,-14.44511,-39.64697,96.78921,93.65083,15,-0.9895252,0.001403486,-0.02674852,-2.865413,0.1499036,0.2773378,-1.127439,-0.664595,-0.06630289,0.08553565,-0.2695236,0.2000252,2
2013-09-19 16:58:24.648,4,0.08,51.03926,13.79346,121,0,142.0312,6,5,1379602703,0.3056641,-0.1887207,-1.362808,-12.08858,-14.44511,-39.64697,96.78921,93.65083,15,-0.8655804,-0.205404,-0.1171863,-2.863777,0.1468446,0.2630902,-1.004187,-0.004597941,-0.02869452,0.05438067,-0.144338,0.1276843,2
2013-09-19 16:58:24.666,5,0.09999999,51.03926,13.79346,121,0,142.0312,6,5,1379602703,0.2090912,-0.23349,-0.941864,-13.63522,-11.95703,-40.13736,96.94357,93.80519,15,-0.7813062,-0.8872569,-0.261002,-2.861578,0.1390229,0.22533,-0.8417087,-0.6593006,-0.2587003,0.1795028,0.02724575,-0.3364721,2
2013-09-19 16:58:24.710,6,0.12,51.03926,13.79346,121,0,142.0312,6,5,1379602703,0.06852722,-0.3258209,-1.096802,-14.17316,-10.74658,-40.27744,97.03465,93.89626,15,-0.4271039,-0.2078725,-0.06519844,-2.865236,0.1159797,0.2031287,-0.7208565,-0.8149038,-0.1454435,0.1285416,-0.006486726,-0.1431218,2
2013-09-19 16:58:24.726,7,0.14,51.03926,13.79346,121,0,117.4219,6,5,1379602704,-0.04307556,-0.1486206,-0.9415131,-14.50939,-10.00687,-40.2074,96.89213,93.75375,15,-0.3779526,-0.2951568,-0.1909242,-2.869419,0.1067258,0.1936286,-0.02175021,-0.1440433,-0.1582013,-0.02111282,-0.1071091,-0.01664159,2
2013-09-19 16:58:24.771,8,0.16,51.03926,13.79346,121,0,117.4219,6,5,1379602704,-0.01809692,-0.09309387,-1.148743,-15.11459,-9.401642,-39.85712,96.76366,93.62528,15,-0.6160962,-0.4670796,-0.3544023,-2.871365,0.1038489,0.1897838,-0.392614,-0.3011581,-0.1928701,-0.0705969,-0.044645,0.2195064,2
2013-09-19 16:58:24.786,9,0.18,51.03926,13.79346,121,0,117.4219,6,5,1379602704,0.05111694,0.02891541,-0.9394073,-15.7198,-9.19989,-40.62772,97.46471,94.32633,15,0.08748724,0.1468334,-0.587708,-2.888256,0.09077412,0.1661637,-0.2709191,-0.2398507,-0.6095206,-0.1074979,0.07230623,-0.1665766,2
2013-09-19 16:58:24.828,10,0.2,51.03926,13.79346,121,0,117.4219,6,5,1379602704,-0.01168823,0.1020966,-0.8724518,-15.58531,-8.930923,-41.04803,98.3777,95.23932,15,0.1977299,0.5824251,-0.5852342,-2.89659,0.09225696,0.1649753,0.07282604,0.1408322,-0.5896539,-0.1329133,0.02474738,-0.1175955,2
2013-09-19 16:58:24.846,11,0.22,51.03926,13.79346,121,0,117.4219,6,5,1379602704,0.06304932,0.2025299,-0.6725616,-14.91286,-9.468887,-41.18814,99.55087,96.41248,15,0.7595865,1.014851,-1.176448,-2.926546,0.1258189,0.1715418,0.4204068,0.8499579,-0.8950546,-0.0965763,0.2611863,0.02483626,2
2013-09-19 16:58:24.887,12,0.24,51.03926,13.79346,121,0,117.4219,6,5,1379602704,0.05348206,0.2927246,-0.2880707,-13.97144,-10.14134,-41.46835,100.4155,97.27716,15,1.271023,1.554638,-1.639646,-2.963493,0.1610095,0.1880078,1.018554,1.204911,-1.411804,-0.09444047,0.3894321,0.2971107,2
2013-09-19 16:58:24.907,13,0.26,51.03926,13.79346,121,0,117.4219,6,5,1379602704,-0.06863403,0.5263519,0.1909943,-12.15582,-10.74657,-41.39828,101.1284,97.98999,15,1.312453,3.290907,-2.599899,-3.04997,0.2575361,0.2230488,1.249806,2.576418,-2.250852,-0.2845983,0.6184207,0.9856828,2
2013-09-19 16:58:24.950,14,0.28,51.03926,13.79346,121,0,117.4219,6,5,1379602704,0.002761841,0.815918,0.6593018,-9.466049,-12.22598,-40.97797,102.4683,99.32996,15,1.474562,3.952385,-3.059211,-3.088892,0.3083191,0.2302594,1.297693,3.284898,-2.601815,-0.3511124,0.674748,1.046914,2
2013-09-19 16:58:24.966,15,0.3,51.03926,13.79346,121,0,117.4219,6,5,1379602704,0.3304291,1.194473,0.8158264,-0.25354,-16.05902,-40.3475,110.5484,107.41,15,2.024468,6.501341,-4.454005,3.038517,0.5368036,0.2322344,1.615504,5.872218,-3.894388,-0.4221933,1.127888,1.506368,2
2013-09-19 16:58:25.012,16,0.32,51.03926,13.79346,121,0,117.4219,6,5,1379602704,0.5004883,1.249527,0.4754791,-0.25354,-16.05902,-40.3475,110.5484,107.41,15,2.515546,6.953559,-5.520528,2.97453,0.6386451,0.2199089,2.009709,6.495333,-4.455922,-0.4740252,1.24138,1.242415,2
2013-09-19 16:58:25.027,17,0.34,51.03926,13.79346,121,0,117.4219,6,5,1379602704,1.336853,1.305038,-0.4063568,14.33856,-18.14365,-36.77481,122.502,119.3636,15,2.65712,7.326514,-5.991773,2.73811,0.9630678,0.1350736,2.474757,7.116859,-5.791648,-0.3129812,1.38419,1.041282,2
2013-09-19 16:58:25.075,18,0.36,51.03926,13.79346,121,0,117.4219,6,5,1379602704,1.336853,1.305038,-0.4063568,22.74414,-17.26944,-32.50162,130.0712,126.9328,15,3.906086,7.483198,-6.671589,2.589352,1.17855,0.02446286,3.289359,7.490421,-6.316946,-0.2046753,1.398133,0.4001864,2
2013-09-19 16:58:25.086,19,0.38,51.03926,13.79346,121,0,117.4219,6,5,1379602704,2.012344,0.471817,-0.7752228,30.41003,-15.25209,-26.33701,142.133,138.9946,15,5.364217,5.089105,-5.732046,2.359966,1.443812,-0.2135084,4.206215,5.721187,-7.062384,1.050824,0.7825406,-0.4605067,2
2013-09-19 16:58:25.130,20,0.4,51.03926,13.79346,121,0,117.4219,6,5,1379602704,2.002106,0.3200073,-0.1503601,36.66379,-11.28455,-19.96222,153.6494,150.511,15,6.35136,4.302176,-4.11846,2.281259,1.497579,-0.2930593,5.349458,5.083097,-5.733963,1.061863,0.4460877,-0.6367385,2
2013-09-19 16:58:25.146,21,0.42,51.03926,13.79346,121,0,117.4219,6,5,1379602704,1.984146,-0.1104584,0.6723938,43.72751,-3.476059,-8.617188,184.541,181.4026,15,3.835224,-1.107543,-2.133664,2.006263,1.526791,-0.4266266,5.26928,0.601644,-2.358129,1.088821,-0.2093496,0.02423949,2
2013-09-19 16:58:25.194,22,0.44,51.03926,13.79346,121,0,117.4219,6,5,1379602704,1.985352,0.0001373291,0.7520599,44.91174,-0.5855255,-6.034149,200.0917,196.9533,10,1.792768,-1.678394,-1.361459,1.938324,1.489826,-0.4536019,3.820466,-1.113551,-2.135581,1.098806,-0.3058055,0.2424105,2
2013-09-19 16:58:25.206,23,0.46,51.03926,13.79346,121,0,117.4219,6,5,1379602704,1.812073,0.06526184,1.567673,45.24796,1.364456,-5.403687,206.8184,203.68,10,1.527565,-0.05086478,-0.8783745,1.828627,1.373115,-0.5037757,1.5509,-0.9265244,-1.065847,1.126641,-0.4825982,0.9240575,2
2013-09-19 16:58:25.253,24,0.48,51.03926,13.79346,121,0,117.4219,6,5,1379602704,1.812073,0.06526184,1.567673,45.11346,2.978256,-6.804718,209.1566,206.0183,10,-2.011018,-4.97507,-1.618907,1.781248,1.338837,-0.519487,0.8002535,-1.196492,-0.8289091,1.140252,-0.3980615,1.137454,2
2013-09-19 16:58:25.266,25,0.5,51.03926,13.79346,121,0,117.4219,6,5,1379602704,1.128326,0.6983795,0.3910675,44.71001,4.726517,-9.60672,210.7606,207.6223,10,-1.203945,-1.470049,0.03804192,1.870799,1.217738,-0.5965369,-2.086505,-3.065937,-0.2437343,1.153764,-0.2955914,0.866967,2
2013-09-19 16:58:25.314,26,0.52,51.03926,13.79346,121,0,117.4219,6,5,1379602704,1.500305,0.4211121,-0.3201752,44.50829,6.542007,-11.9184,209.988,206.8496,10,-0.7796359,-0.9028465,0.242484,1.893432,1.203113,-0.6031876,-1.218703,-1.476057,0.03612531,0.3598376,0.131109,0.6870897,2
2013-09-19 16:58:25.326,27,0.54,51.03926,13.79346,121,0,117.4219,6,5,1379602704,1.601929,0.5201416,-0.08013916,43.02895,7.886826,-16.96204,203.8432,200.7048,10,-0.6816561,0.05463076,0.3264719,1.929839,1.189913,-0.59825,-0.4558774,-0.9171758,0.6101588,0.4988705,-0.09337918,-0.01504226,2
2013-09-19 16:58:25.372,28,0.56,51.03926,13.79346,121,0,117.4219,6,5,1379602704,0.4713287,0.6034851,-0.6061707,43.02895,7.886826,-16.96204,203.8432,200.7048,10,-0.384475,-1.067305,0.7560043,1.941719,1.187629,-0.5970743,-0.6964143,0.04862283,0.3245553,0.1243419,-0.3117829,0.3509089,2
2013-09-19 16:58:25.386,29,0.58,51.03926,13.79346,121,0,117.4219,6,5,1379602704,-0.0854187,0.6292419,-0.2884369,41.95306,8.021317,-18.9234,198.7868,195.6484,10,0.2801203,-0.4590888,1.44818,1.976801,1.171293,-0.5757159,0.09268551,-1.246783,0.8969346,-0.3014218,0.05904966,-0.2799089,2
2013-09-19 16:58:25.429,30,0.6,51.03926,13.79346,121,0,117.4219,6,5,1379602704,1.734665,0.4196014,-0.3270111,41.41512,6.810959,-19.34372,197.7417,194.6033,10,-0.1223384,-0.7552221,0.1452009,1.981104,1.161399,-0.5456392,0.4341905,-0.2211721,0.2758794,-0.8844826,0.08464257,-0.5544571,2
2013-09-19 16:58:25.446,31,0.62,51.03926,13.79346,121,0,117.4219,6,5,1379602704,0.740036,0.942337,0.1023254,41.41512,5.869583,-19.34372,196.7435,193.6051,10,-0.5979422,0.5857532,-0.01470305,1.974203,1.138752,-0.5028625,1.524836,-0.899057,1.302143,0.2396764,0.4521921,-0.3364311,2
2013-09-19 16:58:25.491,32,0.64,51.03926,13.79346,121,0,117.4219,6,5,1379602704,0.9025421,0.7275543,-0.03918457,41.01164,5.466141,-19.90414,195.365,192.2266,10,-0.3335391,0.5847551,-0.296633,1.970191,1.134461,-0.4970901,-0.6127001,0.5797454,-0.0166196,-0.1857951,0.2870157,-1.54706,2
2013-09-19 16:58:25.506,33,0.66,51.03926,13.79346,121,0,117.4219,6,5,1379602704,0.8290558,0.5091705,-0.2115173,41.07889,3.516144,-19.83408,195.0345,191.8961,10,-0.208231,0.4479461,-0.4091667,1.976512,1.157792,-0.5097108,0.03203081,0.4383444,-0.1921363,0.1030494,0.2396294,0.3111593,2
2013-09-19 16:58:25.553,34,0.68,51.03926,13.79346,121,0,117.4219,6,5,1379602704,1.083862,0.4056091,-0.2165527,41.07889,3.516144,-19.83408,195.0345,191.8961,10,-0.3320403,0.8154136,-0.9014518,1.97623,1.163727,-0.5146165,-0.2229887,0.4419384,-0.4110833,0.02897321,0.08726673,0.2273773,2
2013-09-19 16:58:25.566,35,0.7,51.03926,13.79346,121,0,117.4219,6,5,1379602704,0.9168854,0.3295593,-0.1723328,42.22202,4.524765,-19.06357,196.7469,193.6086,10,-0.7831649,0.6138285,-0.8933161,1.977294,1.191732,-0.5509449,-0.5006841,0.8938654,-0.8898544,0.5466959,-0.153589,0.07701394,2
2013-09-19 16:58:25.611,36,0.72,51.03926,13.79346,121,0,117.4219,6,5,1379602704,0.8789978,-0.01490784,0.1574554,42.89444,5.600616,-18.78333,197.5493,194.4109,10,-1.530513,-0.3167859,-0.8217351,1.993812,1.2146,-0.582121,-1.182909,0.105501,-0.8279803,0.3823553,-0.1460798,0.044513,2
2013-09-19 16:58:25.628,37,0.74,51.03926,13.79346,121,0,117.4219,6,5,1379602704,0.4398956,0.4589081,0.5905304,43.36514,7.012665,-17.17218,199.0672,195.9288,10,-2.236607,1.619373,-0.9778051,2.03484,1.229183,-0.6168376,-1.835876,-0.2889922,-0.639972,0.1104216,-0.5933663,0.4307252,2
2013-09-19 16:58:25.676,38,0.76,51.03926,13.79346,121,0,117.4219,6,5,1379602704,0.387558,0.5337677,0.3468933,43.49962,9.298859,-16.05139,199.1813,196.0429,10,-2.253152,2.027981,-1.645361,2.097215,1.293121,-0.6546953,-2.251365,1.613365,-0.9797216,-0.05975434,-0.4235233,1.057637,2
2013-09-19 16:58:25.686,39,0.78,51.03926,13.79346,121,0,117.4219,6,5,1379602704,-0.4161987,-0.2725677,0.7037354,44.30653,11.31609,-13.80975,199.9847,196.8463,10,-1.094468,2.221781,-1.442753,2.195012,1.446731,-0.7433698,-1.944105,2.375405,-1.870122,-0.3429756,-0.1430048,0.4379953,2
2013-09-19 16:58:25.747,40,0.8,51.03928,13.79351,122,1.066123,117.4219,6,5,1379602705,-0.9063263,-0.02622986,-0.8909607,43.97034,13.804,-11.77835,200.8107,197.6723,10,-0.4017653,1.440616,-1.00463,2.218436,1.496537,-0.7674579,-1.109225,2.215773,-1.44467,-0.7249883,-0.5469386,-0.6203582,2
2013-09-19 16:58:25.793,41,0.82,51.03928,13.79351,122,1.066123,117.4219,6,5,1379602705,0.9367523,0.4932709,0.4855499,44.17206,18.57814,-4.142792,210.1179,206.9795,10,0.6286386,0.7462915,-0.2529726,2.208243,1.621243,-0.8245916,0.5472499,1.098825,-0.540064,-0.2869105,-0.7359796,-0.375983,2
2013-09-19 16:58:25.806,42,0.84,51.03928,13.79351,122,1.066123,117.4219,6,5,1379602705,0.6446991,1.669785,0.4437714,43.56686,19.18329,-3.512329,212.8707,209.7323,10,1.70857,0.4077063,-0.5408553,2.142893,1.593729,-0.8284879,2.130087,0.7701869,0.2700858,0.2848346,0.2227609,-1.133497,2
2013-09-19 16:58:25.852,43,0.86,51.03928,13.79351,122,1.066123,117.4219,6,5,1379602705,1.14505,1.726471,-0.1717224,43.49962,19.78845,-2.461578,214.0279,210.8895,10,0.570635,-0.06351959,-1.387542,2.100586,1.570351,-0.8323991,1.693813,0.4016989,-0.5427716,0.0622177,0.4683068,-0.1398672,2
2013-09-19 16:58:25.866,44,0.88,51.03928,13.79351,122,1.066123,117.4219,6,5,1379602705,0.6425629,2.007523,-1.234085,43.02895,20.66258,-2.671753,217.5067,214.3683,10,1.046046,1.870074,-0.8471598,2.055187,1.521424,-0.8842726,1.193341,-0.06793724,-1.315957,0.4354321,0.8307481,-0.8112627,2
2013-09-19 16:58:25.912,45,0.9,51.03928,13.79351,122,1.066123,117.4219,6,5,1379602705,0.6102753,1.557373,-0.1364441,43.09618,21.26776,-2.741821,219.7117,216.5733,10,1.422902,-0.1601827,-0.02307576,2.027648,1.516954,-0.8975157,1.031289,1.864067,-0.8490762,0.4090726,0.6385536,-0.2212033,2
2013-09-19 16:58:25.927,46,0.92,51.03928,13.79351,122,1.066123,117.4219,6,5,1379602705,0.753952,1.208328,-0.3125458,41.81856,21.60396,-4.212891,223.9954,220.8571,10,1.331764,-2.178417,-0.3534902,1.949134,1.479008,-0.9000775,1.283257,-1.009939,-0.1388634,-0.008657482,0.773998,-0.07947308,2
2013-09-19 16:58:25.974,47,0.94,51.03928,13.79351,122,1.066123,117.4219,6,5,1379602705,0.753952,1.208328,-0.3125458,41.01164,21.46947,-6.03421,225.2645,222.1261,10,1.258992,-3.50075,-0.6078277,1.919772,1.432385,-0.9016834,1.316983,-2.184426,-0.355397,0.03023397,0.7857877,-0.3783777,2
2013-09-19 16:58:25.986,48,0.96,51.03928,13.79351,122,1.066123,117.4219,6,5,1379602705,1.99382,0.1049805,0.2026367,39.66681,21.87292,-7.995605,225.3093,222.1709,10,0.2733703,-3.330615,-1.916241,1.773469,1.163778,-0.9153988,1.676839,-2.235928,-1.960231,-0.02068201,0.2708539,0.6208218,2
2013-09-19 16:58:26.034,49,0.98,51.03928,13.79351,122,1.066123,117.4219,6,5,1379602705,1.4319,0.3927307,-0.2789612,37.51503,22.94878,-11.35803,227.064,223.9256,10,-0.6472009,-4.051994,-2.019153,1.737246,1.095242,-0.9386523,0.2585899,-3.336623,-1.918148,1.476428,-0.2357176,0.5668775,2
2013-09-19 16:58:26.046,50,1,51.03928,13.79351,122,1.066123,117.4219,6,5,1379602705,0.1960602,-0.2998505,0.7316589,34.82533,25.10048,-15.14078,225.3634,222.225,10,-2.535229,-2.2511,-1.844848,1.700757,0.8514583,-1.044382,-1.776144,-5.847646,-2.642995,0.7661506,-0.3711604,0.62005,2
2013-09-19 16:58:26.090,51,1.02,51.03928,13.79351,122,1.066123,117.4219,6,5,1379602705,-0.0735321,0.6116486,-0.08351135,32.40459,27.79013,-17.10217,224.9023,221.7639,10,-1.584174,2.786056,-3.802833,1.708569,0.8087018,-1.087261,-2.550009,-2.257108,-1.846755,0.3424125,-0.5964468,1.495157,2
2013-09-19 16:58:26.106,52,1.04,51.03928,13.79351,122,1.066123,117.4219,6,5,1379602705,0.06954956,0.1268768,-0.01678467,27.4286,33.57285,-17.52246,226.8393,223.7009,10,0.4053656,4.633145,-4.0092,1.603152,0.7946694,-1.230635,-0.3768214,4.801227,-4.559014,-0.3116278,-0.3310522,0.1502099,2
2013-09-19 16:58:26.149,53,1.06,51.03928,13.79351,122,1.066123,117.4219,6,5,1379602705,0.07975769,-0.2161865,0.4615936,27.4286,33.57285,-17.52246,226.8393,223.7009,10,1.077185,2.974536,-3.346817,1.297697,0.6267018,-1.293582,0.9427345,3.822714,-3.664962,-0.07038679,-0.8072806,0.1617479,2
2013-09-19 16:58:26.166,54,1.08,51.03928,13.79351,122,1.066123,117.4219,6,5,1379602705,0.5258026,0.6573181,-1.9198,25.6803,38.27972,-12.33871,249.5732,246.4348,10,-2.20693,7.616674,1.430641,1.018782,0.5229006,-1.319685,-1.28021,6.185727,0.9182937,-0.0443322,-1.184824,0.6768706,2
2013-09-19 16:58:26.210,55,1.1,51.03928,13.79351,122,1.066123,117.4219,6,5,1379602705,0.5258026,0.6573181,-1.9198,25.81477,39.2211,-9.2565,256.0001,252.8617,10,-1.702849,5.366003,1.384579,1.147991,0.7498729,-1.331092,-2.221709,7.610665,1.428734,0.02398144,-0.9043611,0.4693282,2
2013-09-19 16:58:26.226,56,1.12,51.03928,13.79351,122,1.066123,117.4219,6,5,1379602705,0.06013489,0.9091187,-0.6717682,27.49585,40.09523,-6.104248,258.9098,255.7714,10,-2.088213,1.088388,1.59919,1.418107,1.143983,-1.301906,-0.3737006,0.5241031,2.001098,0.2769694,-0.3117987,-1.387216,2
2013-09-19 16:58:26.270,57,1.14,51.03928,13.79351,122,1.066123,117.4219,6,5,1379602705,0.2279968,0.5713959,0.6957855,29.04242,39.75903,-2.671783,259.1677,256.0293,10,-4.162899,-4.87777,-1.603627,1.527299,1.26161,-1.285547,-2.102993,1.082379,1.597284,0.0211618,-0.08607163,-0.2812122,2
2013-09-19 16:58:26.286,58,1.16,51.03928,13.79351,122,1.066123,117.4219,6,5,1379602705,0.5330658,2.017487,1.299973,30.38728,39.62454,-0.570282,261.4192,258.2808,10,-6.896817,-15.59168,1.623298,2.196864,1.748474,-1.325185,-8.653331,-10.3907,-0.1997889,0.1310553,-0.3233214,1.376306,2
2013-09-19 16:58:26.331,59,1.18,51.03928,13.79351,122,1.066123,117.4219,6,5,1379602705,2.026337,2.036331,0.6216583,32.60629,38.75041,-0.07995605,241.0732,237.9348,10,3.497265,6.734113,1.881811,2.747358,1.918061,-1.233272,-3.068246,-8.449986,1.741161,0.06108261,0.7766221,1.904283,2
2013-09-19 16:58:26.346,60,1.2,51.03928,13.79351,122,1.066123,117.4219,6,5,1379602705,0.6983795,0.07640076,-1.025925,33.34596,37.33835,0.9708252,233.7962,230.6578,10,-3.257533,4.35327,2.653538,2.452019,1.81706,-1.178984,-2.396647,2.233164,3.526407,1.661669,1.109961,0.03938523,2
2013-09-19 16:58:26.392,61,1.22,51.03928,13.79351,122,1.066123,117.4219,6,5,1379602705,-0.45784,-0.3445282,-0.6962128,34.48907,36.06078,2.58197,234.6773,231.539,10,-2.384421,4.983405,1.194364,2.526524,1.934042,-1.125629,-3.272312,4.347262,2.651632,0.4949808,0.3981509,-0.3134305,2
2013-09-19 16:58:26.408,62,1.24,51.03928,13.79351,122,1.066123,117.4219,6,5,1379602705,-1.379898,-0.2583923,-0.8512878,35.83394,34.44699,4.263184,229.8976,226.7592,10,0.5654959,0.5001805,0.09653267,2.618935,2.179228,-1.075599,-0.03486849,2.183366,-0.03822822,-0.8477671,-1.224403,-0.9678311,2
2013-09-19 16:58:26.450,63,1.26,51.03928,13.79351,122,1.066123,117.4219,6,5,1379602705,-1.379898,-0.2583923,-0.8512878,36.37187,33.10217,6.364716,232.8841,229.7457,10,0.610665,-1.719832,-0.4702743,2.609449,2.185646,-1.078099,0.5507168,0.4941723,0.09462597,-1.127467,-0.9863308,-0.8966399,2
2013-09-19 16:58:26.465,64,1.28,51.03928,13.79351,122,1.066123,117.4219,6,5,1379602705,-0.6024323,-0.3038177,-0.3701935,36.64085,32.96769,7.905823,235.5821,232.4437,10,1.757333,-4.331033,-2.221349,2.570262,2.090651,-1.110541,1.427147,-2.942854,-1.601842,-1.757445,-1.171208,-1.779148,2
2013-09-19 16:58:26.510,65,1.3,51.03928,13.79351,122,1.066123,117.4219,6,5,1379602705,0.4543304,-0.2182922,0.7384491,35.63222,33.84182,7.135254,235.7184,232.58,10,0.9863459,-2.403096,-2.40707,2.541147,1.949048,-1.186834,1.248462,-4.200798,-2.670126,-0.9505501,-1.231005,-0.5085311,2
2013-09-19 16:58:26.526,66,1.32,51.03928,13.79351,122,1.066123,117.4219,6,5,1379602705,1.200623,1.689087,0.9423218,33.34596,36.39698,3.212463,238.3002,235.1618,10,-4.193427,1.726082,3.082351,2.546939,1.914078,-1.257478,-1.011708,1.163083,0.4079109,0.8893769,-0.7258674,1.295079,2
2013-09-19 16:58:26.573,67,1.34,51.03928,13.79351,122,1.066123,117.4219,6,5,1379602705,0.3688812,0.3106384,-0.1794586,33.41321,36.32974,1.741394,238.1015,234.9632,10,-3.798036,-1.674502,2.793888,2.632994,2.015597,-1.210345,-4.208206,1.720074,3.080445,1.592923,0.7609479,1.89643,2
2013-09-19 16:58:26.586,68,1.36,51.03928,13.79351,122,1.066123,117.4219,6,5,1379602705,-1.237686,1.989258,0.8145599,33.34598,36.26249,0.2703552,222.6344,219.496,10,-0.5418731,-1.707077,-2.071822,2.746032,1.981539,-1.092172,-0.3532856,-5.430924,-0.238018,-0.0533701,-0.5769909,-0.3633552,2
2013-09-19 16:58:26.630,69,1.38,51.03928,13.79351,122,1.066123,117.4219,6,5,1379602705,-0.3685608,0.2021332,-0.6629333,33.07701,36.80042,0.6906433,216.2482,213.1098,10,-1.29771,0.2460676,-3.13149,2.773503,1.964786,-1.111176,-0.5566517,-1.713085,-2.073729,-0.7472676,-0.1197773,-2.108035,2
2013-09-19 16:58:26.647,70,1.4,51.03928,13.79351,122,1.066123,117.4219,6,5,1379602705,-0.1797333,0.7286377,-1.494247,31.79938,37.13662,2.021606,221.885,218.7466,10,1.548754,4.081695,-4.635628,-3.099663,2.447075,-1.234206,-0.4312125,5.440868,-6.244676,-1.031401,0.1467205,-0.1614064,2
2013-09-19 16:58:26.694,71,1.42,51.03928,13.79351,122,1.066123,117.4219,6,5,1379602705,-0.685379,1.987549,-1.335144,29.17693,38.68316,2.371857,232.3969,229.2586,10,1.259794,-0.3925438,-4.595111,-2.763315,2.867914,-1.322871,1.082441,1.559582,-3.660702,-0.246057,-0.2407859,-1.730508,2
2013-09-19 16:58:26.713,72,1.44,51.03928,13.79351,122,1.066123,117.4219,6,5,1379602705,0.03019714,2.005844,0.3701019,21.30949,44.26416,2.301819,248.011,244.8727,10,6.937202,5.730256,-3.36404,-2.157753,-2.819649,-1.36957,3.524187,1.130406,-5.538398,-0.6221375,1.007727,-1.524747,2
2013-09-19 16:58:26.796,73,1.46,51.03928,13.79352,123,1.099019,115.3125,6,5,1379602706,0.7943573,1.893463,0.457428,15.12317,46.14692,-6.244385,270.2298,267.0914,10,5.31278,5.210725,0.1600288,-1.600685,-2.213012,-1.406762,6.922424,5.724248,-3.365947,0.1609631,1.019268,0.2722899,2
2013-09-19 16:58:26.839,74,1.48,51.03928,13.79352,123,1.099019,115.3125,6,5,1379602706,-1.436111,1.991013,1.838394,13.77831,44.66763,-11.84842,270.7442,267.6058,10,3.516644,-0.4727321,1.26348,-1.055673,-1.591766,-1.422923,5.298002,5.204717,0.1581222,1.294947,1.035007,0.7668844,2
2013-09-19 16:58:26.877,75,1.5,51.03928,13.79352,123,1.099019,115.3125,6,5,1379602706,-0.4053802,2.004471,1.46637,13.77831,44.66763,-11.84842,270.7442,267.6058,10,3.641393,-2.447748,-0.2550118,-0.6730761,-1.191769,-1.428247,3.501865,-0.47874,1.261573,0.9263411,0.9036061,0.5099952,2
2013-09-19 16:58:26.885,76,1.52,51.03928,13.79352,123,1.099019,115.3125,6,5,1379602706,0.5524445,0.2775269,0.5983887,13.77831,44.39866,-13.80978,268.2136,265.0752,10,-1.409688,1.990546,1.389381,0.03652118,-0.5645543,-1.235838,-0.710646,2.564946,0.8369852,0.8995771,-1.170742,0.7591345,2
2013-09-19 16:58:26.935,77,1.54,51.03928,13.79352,123,1.099019,115.3125,6,5,1379602706,-0.8863525,0.5088348,0.7102051,13.77831,44.39866,-13.80978,268.2136,265.0752,10,-2.434222,1.186034,0.6821876,0.05777755,-0.5118831,-1.257905,-1.424466,1.984538,1.387475,0.9339291,-0.9378062,0.7393497,2
2013-09-19 16:58:26.945,78,1.56,51.03928,13.79352,123,1.099019,115.3125,6,5,1379602706,0.3986969,1.098602,0.07835388,13.9128,44.80211,-11.56821,268.0185,264.8801,10,-3.010794,1.360643,-1.41116,-0.2011178,-0.6797311,-1.338964,-2.761253,2.957657,-1.849811,-0.8966368,-0.5868944,0.6401821,2
2013-09-19 16:58:26.994,79,1.58,51.03928,13.79352,123,1.099019,115.3125,6,5,1379602706,0.7053833,1.93248,0.4487152,14.11452,45.27279,-8.275848,272.3187,269.1803,10,-4.651196,0.4561723,1.324147,-0.4025429,-0.8472096,-1.35236,-3.025594,1.354638,-1.413057,0.1894591,-0.4945938,-0.4943278,2
2013-09-19 16:58:27.006,80,1.6,51.03928,13.79352,123,1.099019,115.3125,6,5,1379602706,-0.6968689,1.991135,-0.5140686,14.58522,45.87795,-4.002747,274.991,271.8526,10,-4.672893,0.9426056,1.639937,-1.39237,-1.799716,-1.437005,-4.869062,1.246419,1.815397,0.8352962,0.9414166,0.418445,2
2013-09-19 16:58:27.051,81,1.62,51.03928,13.79352,123,1.099019,115.3125,6,5,1379602706,-0.2442932,2.00647,1.386612,14.51797,46.21416,0.2703552,271.5007,268.3623,10,-2.187209,-4.630153,0.04190404,-2.249043,-2.633637,-1.395632,-3.934633,-0.8888487,1.617787,-0.01534938,1.019025,0.1698463,2
2013-09-19 16:58:27.066,82,1.64,51.03928,13.79352,123,1.099019,115.3125,6,5,1379602706,0.704483,1.723801,0.0133667,16.53526,45.27278,8.536316,263.8016,260.6632,10,-3.650936,3.856732,2.009653,-2.490044,-2.99046,-1.312938,-2.332173,1.430751,2.16623,0.00148278,1.042431,1.10393,2
2013-09-19 16:58:27.114,83,1.66,51.03928,13.79352,123,1.099019,115.3125,6,5,1379602706,0.6159515,1.472244,-0.264328,16.53526,45.27278,8.536316,263.8016,260.6632,10,-3.763389,3.805486,1.527023,-2.618221,-3.06548,-1.270779,-3.665735,3.850728,2.007756,0.1722373,1.053275,0.2901426,2
2013-09-19 16:58:27.126,84,1.68,51.03928,13.79352,123,1.099019,115.3125,6,5,1379602706,-0.08599854,0.4006042,-0.7845154,17.14046,42.65039,16.59213,269.506,266.3676,10,-2.309829,5.435649,0.09180529,-2.800165,-3.040578,-1.126506,-3.125589,6.05879,0.638857,0.6592955,0.5693284,-0.6919543,2
2013-09-19 16:58:27.178,85,1.7,51.03928,13.79352,123,1.099019,115.3125,6,5,1379602706,-0.9483795,-0.6295013,-0.9654846,17.00597,41.17108,21.07538,276.5896,273.4512,10,-0.6624286,2.606021,0.5324575,-2.81805,-2.97568,-1.091506,-2.324628,5.429645,0.08990898,0.4891695,0.1022254,-1.028105,2
2013-09-19 16:58:27.185,86,1.72,51.03928,13.79352,123,1.099019,115.3125,6,5,1379602706,0.07336426,-1.428802,-1.920074,16.2663,39.75903,24.50787,289.7675,286.6291,10,0.8665679,-0.1385166,0.4546623,-2.867965,-2.895182,-1.055197,0.001292052,1.394958,0.5338521,-0.6928573,-1.610583,-1.421141,2
2013-09-19 16:58:27.238,87,1.74,51.03928,13.79352,123,1.099019,115.3125,6,5,1379602706,-0.00352478,-0.8425293,-1.300659,16.40079,39.35558,25.20837,294.3656,291.2272,10,4.696638,-4.279017,0.3075714,-2.877512,-2.920988,-1.092867,2.781313,-2.471374,0.501499,-0.08464325,-2.12562,-2.137501,2
2013-09-19 16:58:27.300,88,1.76,51.03928,13.79352,123,1.099019,115.3125,6,5,1379602706,-0.01809692,2.012619,2.007858,19.02325,40.09523,20.93527,286.507,283.3686,10,1.966938,-2.157736,0.6638739,-2.824035,-3.134735,-1.333695,3.547251,-3.493325,0.196942,-0.09303953,-1.149376,-0.4052298,2
2013-09-19 16:58:27.306,89,1.78,51.03928,13.79352,123,1.099019,115.3125,6,5,1379602706,0.1087952,2.014496,2.010422,21.91467,41.64178,14.70081,273.7156,270.5772,10,-0.6285436,-2.645739,0.9852205,-2.858171,3.080971,-1.368974,1.952139,-2.163741,0.6619776,0.410112,0.03296196,0.811418,2
2013-09-19 16:58:27.370,90,1.8,51.03928,13.79352,123,1.099019,115.3125,6,5,1379602706,0.3444519,0.1500244,-0.3607178,22.65436,41.44006,13.79013,268.1171,264.9787,10,1.067785,2.330056,-0.7118132,-2.915025,2.961047,-1.292224,-2.932821,1.352154,0.3166333,0.01060441,1.05233,1.738916,2
2013-09-19 16:58:27.427,91,1.82,51.03928,13.79352,123,1.099019,115.3125,6,5,1379602706,-1.980591,1.983597,1.9664,20.03189,42.04524,15.12109,267.8813,264.7429,10,-2.102537,-6.353448,-1.833312,-2.863939,3.104584,-1.260606,1.052987,2.324051,-0.7137094,0.3331579,-0.802251,-0.665749,2
2013-09-19 16:58:27.479,92,1.84,51.03928,13.79352,123,1.099019,115.3125,6,5,1379602706,0.934906,2.014755,-0.5912323,18.14911,43.25558,14.00031,273.4478,270.3094,10,3.554406,-1.776953,-1.873607,-2.248747,-2.674427,-1.304356,1.468662,-1.597678,-1.156031,0.6904171,-0.3873827,-1.718347,2
2013-09-19 16:58:27.485,93,1.86,51.03928,13.79352,123,1.099019,115.3125,6,5,1379602706,-1.535553,1.986404,1.150208,16.13182,45.54176,8.256134,272.9705,269.8321,10,3.368585,1.793824,2.471089,-1.233133,-1.676016,-1.417888,6.834915,2.942935,1.622944,1.768735,1.048457,2.024805,2
2013-09-19 16:58:27.537,94,1.88,51.03928,13.79352,123,1.099019,115.3125,6,5,1379602706,-1.57518,1.522537,1.850113,16.26631,46.07968,3.912994,278.1438,275.0054,10,3.919369,1.219517,-0.4988761,-0.7722175,-1.186518,-1.443434,3.353786,1.78782,2.469193,0.815478,1.029309,1.632701,2
2013-09-19 16:58:27.547,95,1.9,51.03928,13.79352,123,1.099019,115.3125,6,5,1379602706,0.4204559,0.5417023,0.4681854,16.40079,46.34866,-0.1499634,276.5759,273.4375,10,1.733369,-0.1588533,-0.6449209,-0.1010188,-0.4854443,-1.349661,2.440465,1.911667,-0.599395,-1.472837,0.5468881,2.04411,2
2013-09-19 16:58:27.594,96,1.92,51.03928,13.79352,123,1.099019,115.3125,6,5,1379602706,0.6932678,-0.4147186,0.2673492,16.53526,45.81073,-4.352966,278.7816,275.6432,10,1.552339,-2.708438,-0.4929921,-0.07267542,-0.4731489,-1.299806,1.468255,-2.349369,-0.483169,-0.109463,0.09110507,1.117687,2
2013-09-19 16:58:27.606,97,1.94,51.03928,13.79352,123,1.099019,115.3125,6,5,1379602706,0.6035614,-0.4907532,0.7156219,16.06456,45.60901,-7.084961,277.8766,274.7382,10,-0.4948739,1.074815,-0.04036527,-0.06091778,-0.5715441,-1.250814,0.1563316,-1.718621,-0.405895,0.8634177,-1.36396,0.5319066,2
2013-09-19 16:58:27.652,98,1.96,51.03928,13.79352,123,1.099019,115.3125,6,5,1379602706,0.6709747,0.2716522,0.2215271,15.52663,44.9366,-8.766205,275.8394,272.701,10,-0.7235614,1.993128,0.4180279,-0.0753221,-0.5831283,-1.253229,-0.5096716,1.068811,-0.04226139,0.7309001,-1.4693,0.9030949,2
2013-09-19 16:58:27.666,99,1.98,51.03928,13.79352,123,1.099019,115.3125,6,5,1379602706,-0.4116516,0.1300354,0.0632019,14.7197,45.34004,-8.906311,274.5371,271.3987,10,-2.395733,1.57035,-0.5012817,-0.07274059,-0.5391219,-1.305241,-1.883615,0.01244381,0.6797006,0.3528593,-0.6322442,0.6178135,2
2013-09-19 16:58:27.717,100,2,51.03928,13.79352,123,1.099019,115.3125,6,5,1379602706,0.03355408,0.4163361,0.1172943,14.45073,45.87797,-7.225067,274.6245,271.4861,10,-3.024106,2.988563,-0.6343415,-0.1455182,-0.5966884,-1.33118,-2.410531,1.564346,-0.5031778,-0.3580061,-0.6600887,0.7821658,2
2013-09-19 16:58:27.726,101,2.02,51.03928,13.79352,123,1.099019,115.3125,6,5,1379602706,1.042603,2.021988,0.6462402,15.05591,46.88658,-3.232208,278.6557,275.5173,10,-4.35982,1.589322,-0.02838184,-0.6843816,-1.004435,-1.3958,-3.689872,2.876417,-0.4256391,0.1804738,-0.5683911,0.2107128,2
2013-09-19 16:58:27.773,102,2.04,51.03928,13.79352,123,1.099019,115.3125,6,5,1379602706,-0.1548462,2.002945,0.3267975,15.5266,47.35727,0.9007568,282.5881,279.4497,10,-5.664063,0.8199066,2.085845,-1.497736,-1.771168,-1.430705,-5.478287,0.2570838,1.294922,1.198684,0.9613807,0.4434911,2
2013-09-19 16:58:27.785,103,2.06,51.03928,13.79352,123,1.099019,115.3125,6,5,1379602706,-0.7576294,1.999161,1.438995,16.06454,47.08832,5.243896,283.3302,280.1918,10,-1.739906,-5.974287,-0.2089221,-2.56788,-2.810945,-1.328318,-2.881114,-1.640617,-0.07808697,-0.07689343,1.032199,0.09969478,2
2013-09-19 16:58:27.834,104,2.08,51.03928,13.79352,123,1.099019,115.3125,6,5,1379602706,1.056458,2.01944,0.04335022,16.73697,46.28143,9.026642,278.249,275.1106,10,-2.059245,-5.152895,2.013844,-2.569537,-2.876136,-1.300222,-1.754703,-5.980291,-0.2108181,-1.16996,1.023092,0.005520375,2
2013-09-19 16:58:27.845,105,2.1,51.03928,13.79352,123,1.099019,115.3125,6,5,1379602706,1.257568,1.502716,-0.3943329,16.73697,46.28143,9.026642,278.249,275.1106,10,-4.031879,5.179934,2.128548,-2.847149,3.124026,-1.192396,-4.29143,5.437958,2.246814,1.049968,1.090183,-0.3260273,2
2013-09-19 16:58:27.899,106,2.12,51.03928,13.79352,123,1.099019,115.3125,6,5,1379602706,0.08880615,0.3358612,-0.6504059,17.2749,42.11248,16.31192,270.4912,267.3528,10,-2.275901,4.388545,0.3912389,-2.922016,3.127028,-1.13354,-4.046676,5.17393,2.126652,1.251355,0.9582952,-0.9669288,2
2013-09-19 16:58:27.913,107,2.14,51.03928,13.79353,123,1.099974,116.0156,6,5,1379602707,-1.253601,-0.6550598,-0.6202393,16.13176,38.81767,22.8266,283.4368,280.2984,10,-2.275901,4.388545,0.3912389,-2.972392,-3.124887,-1.083368,-3.327269,5.419236,1.259366,1.265392,0.6191757,-0.8626224,2
2013-09-19 16:58:27.929,108,2.16,51.03928,13.79353,123,1.099974,116.0156,6,5,1379602707,-1.253601,-0.6550598,-0.6202393,14.92139,37.60732,25.62863,290.3264,287.188,10,-1.198564,2.984184,0.363856,-2.972392,-3.124887,-1.083368,-3.327269,5.419236,1.259366,1.265392,0.6191757,-0.8626224,2
2013-09-19 16:58:27.970,109,2.18,51.03928,13.79353,123,1.099974,116.0156,6,5,1379602707,-1.253601,-0.6550598,-0.6202393,15.39211,37.13664,26.25906,294.0872,290.9488,10,-0.1269188,2.200284,0.4984013,-2.992639,-3.076524,-1.047298,-2.290698,4.382541,0.3893428,0.6519209,0.06785377,-1.199951,2
2013-09-19 16:58:28.018,110,2.2,51.03928,13.79353,123,1.099974,116.0156,6,5,1379602707,0.2659607,-1.18425,-1.787903,16.73697,39.28835,20.23474,286.848,283.7096,10,1.293142,0.5852646,0.2514645,-3.019454,-3.018722,-1.019886,-0.1417157,2.19428,0.4965053,-1.189444,-1.507108,-1.139756,2
2013-09-19 16:58:28.025,111,2.22,51.03928,13.79353,123,1.099974,116.0156,6,5,1379602707,-0.06887817,2.011871,2.006836,16.73697,39.28835,20.23474,286.848,283.7096,10,-1.110128,-3.033998,0.8431411,3.138236,2.872745,-1.358854,1.514889,-2.696505,0.8000453,-0.2230663,-0.5450376,0.24721,2
2013-09-19 16:58:28.072,112,2.24,51.03928,13.79353,123,1.099974,116.0156,6,5,1379602707,-0.06887817,2.011871,2.006836,18.48529,39.82629,16.73221,280.7389,277.6005,10,-3.231658,1.354705,0.1931245,3.090093,2.788196,-1.353381,-1.124945,-3.039994,0.8412558,0.1693807,0.5527013,1.126634,2
2013-09-19 16:58:28.086,113,2.26,51.03928,13.79353,123,1.099974,116.0156,6,5,1379602707,0.1416321,-0.1257935,-1.924225,19.29221,40.63316,13.08957,263.6361,260.4977,10,2.231524,0.8785356,-1.323443,-3.056696,2.929323,-1.228351,-1.956703,6.95325,-0.6506529,-0.2459914,0.8203471,1.677482,2
2013-09-19 16:58:28.130,114,2.28,51.03928,13.79353,123,1.099974,116.0156,6,5,1379602707,-0.846283,1.969986,-1.213821,18.61978,40.22973,13.22971,269.6527,266.5143,10,-1.446532,-4.8313,-2.200066,-2.908143,3.076551,-1.25505,-0.6249084,-5.026961,-3.051069,0.1214491,-1.076358,-2.234094,2
2013-09-19 16:58:28.146,115,2.3,51.03928,13.79353,123,1.099974,116.0156,6,5,1379602707,0.2115784,1.012863,-0.423996,17.8801,40.8349,13.01953,266.8869,263.7485,10,2.794079,0.6851426,-1.654109,-2.674247,-3.102249,-1.273035,4.126889,0.999511,-1.145351,-1.449016,1.026991,-0.134523,2
2013-09-19 16:58:28.193,116,2.32,51.03928,13.79353,123,1.099974,116.0156,6,5,1379602707,0.3676758,1.780472,-1.147949,16.40074,41.64179,12.319,263.2915,260.1531,10,0.9146717,0.001086836,-2.057645,-2.582175,-3.002612,-1.319519,2.779262,0.6791461,-1.655994,0.005895895,-0.04701058,-0.4894078,2
2013-09-19 16:58:28.206,117,2.34,51.03928,13.79353,123,1.099974,116.0156,6,5,1379602707,0.6833496,2.012833,-0.2044525,15.19038,42.58318,9.657104,269.0403,265.9019,10,6.494016,2.684147,0.03853248,-2.042756,-2.476063,-1.375074,5.294094,1.057483,-2.159922,0.7675598,1.029362,-0.8011349,2
2013-09-19 16:58:28.252,118,2.36,51.03928,13.79353,123,1.099974,116.0156,6,5,1379602707,-1.207306,1.995041,1.983902,14.38347,43.39007,6.154572,269.1227,265.9843,10,4.644611,-2.159976,2.480365,-1.594243,-2.003399,-1.422368,6.4792,2.67815,0.03664724,1.287077,1.032358,0.09426706,2
2013-09-19 16:58:28.266,119,2.38,51.03928,13.79353,123,1.099974,116.0156,6,5,1379602707,-0.1486664,1.266998,0.9998474,13.98001,44.19697,-1.831177,274.5605,271.4221,10,2.936314,3.089554,-0.8882431,0.02189153,-0.4176621,-1.411039,4.819366,-2.504071,0.9710886,-1.14278,1.007775,2.129307,2
2013-09-19 16:58:28.310,120,2.4,51.03928,13.79353,123,1.099974,116.0156,6,5,1379602707,0.6429749,0.7584686,0.6667023,13.64381,44.12973,-5.824005,276.6937,273.5553,10,1.75304,-1.185161,-0.5413187,0.08046966,-0.2924826,-1.327982,2.249161,3.004399,-0.9056524,-1.848766,0.8075789,1.85614,2
2013-09-19 16:58:28.326,121,2.42,51.03928,13.79353,123,1.099974,116.0156,6,5,1379602707,0.8395691,-0.1819916,0.3310852,13.50932,44.12973,-8.766144,276.2159,273.0775,10,0.4003317,-2.785962,-0.4909447,0.06923291,-0.3854454,-1.265158,1.043369,-3.157499,-0.600583,0.7561054,-0.1951866,0.945527,2
2013-09-19 16:58:28.372,122,2.44,51.03928,13.79353,123,1.099974,116.0156,6,5,1379602707,0.8001404,-0.5471039,0.6773529,13.44208,43.928,-10.93771,273.6504,270.512,10,-0.3768743,-0.5356357,-0.1497629,0.05738616,-0.4377719,-1.253761,0.3855158,-2.791958,-0.4928299,0.943575,-0.6746206,0.6900522,2
2013-09-19 16:58:28.385,123,2.46,51.03928,13.79353,123,1.099974,116.0156,6,5,1379602707,-0.6728516,0.4754181,0.6808777,13.0386,43.79353,-11.63818,272.2832,269.1448,10,-1.732309,0.4617005,1.598136,0.04973446,-0.420283,-1.282709,-1.130757,1.831946,1.139314,1.123266,-0.9886656,0.6067445,2
2013-09-19 16:58:28.433,124,2.48,51.03928,13.79353,123,1.099974,116.0156,6,5,1379602707,-0.9667358,0.2416229,0.2117004,13.30757,44.33146,-11.07782,271.9909,268.8525,10,-2.889486,3.193855,-1.136135,0.09257393,-0.366449,-1.309894,-1.747124,0.4557042,1.59625,0.9038875,-0.6570755,0.4515193,2
2013-09-19 16:58:28.446,125,2.5,51.03928,13.79353,123,1.099974,116.0156,6,5,1379602707,0.7650299,1.497925,0.1390533,13.8455,45.27283,-6.034149,273.4491,270.3107,10,-3.87638,1.788377,-0.4888243,-0.2288711,-0.5864617,-1.404258,-2.96341,4.094701,-1.494912,-0.8749959,-0.7445415,0.3497708,2
2013-09-19 16:58:28.493,126,2.52,51.03928,13.79353,123,1.099974,116.0156,6,5,1379602707,0.5273438,2.014282,0.613678,14.24895,46.07971,-1.831085,278.8875,275.7491,10,-4.696208,-0.1510825,0.6425057,-0.8559017,-1.120511,-1.454698,-3.891196,1.782381,-0.4907094,0.3623782,-0.2214481,-0.0753326,2
2013-09-19 16:58:28.506,127,2.54,51.03928,13.79353,123,1.099974,116.0156,6,5,1379602707,-1.309341,1.98143,-0.6692352,14.4507,45.7435,3.142517,279.7485,276.6101,10,-4.242302,-1.259109,0.3168275,-2.579203,-2.82188,-1.401414,-5.689627,0.4477556,1.671786,0.5803254,1.028593,0.4536468,2
2013-09-19 16:58:28.550,128,2.56,51.03928,13.79353,123,1.099974,116.0156,6,5,1379602707,0.1226501,2.011566,1.320648,14.78691,44.86937,7.135345,277.9782,274.8398,10,-1.807234,-5.270492,-0.7265556,-2.718374,-2.965967,-1.338454,-4.257118,-1.265105,0.3149424,-0.6389524,1.020919,-0.161393,2
2013-09-19 16:58:28.566,129,2.58,51.03928,13.79353,123,1.099974,116.0156,6,5,1379602707,1.14418,1.86174,-0.2891083,15.66107,43.99524,10.42776,276.0255,272.8871,10,-3.85302,4.452157,1.999317,-2.829657,3.041315,-1.258172,-2.573177,0.1400296,1.883296,0.09186073,1.060036,1.014637,2
2013-09-19 16:58:28.611,130,2.6,51.03928,13.79353,123,1.099974,116.0156,6,5,1379602707,0.839798,1.296127,-0.3285675,16.66969,42.4487,14.28052,267.3191,264.1807,10,-3.662133,4.92098,1.779187,-2.893805,3.028967,-1.207132,-3.867836,4.446161,1.997432,0.872606,1.084016,-0.03023568,2
2013-09-19 16:58:28.627,131,2.62,51.03928,13.79353,123,1.099974,116.0156,6,5,1379602707,-1.049759,-0.7073212,-0.4392853,17.40938,38.48149,21.21552,273.3753,270.2369,10,-1.624146,3.91193,0.1512375,-3.023045,3.10784,-1.050427,-2.60059,5.259611,0.4426703,0.5779629,-0.2178707,-1.062194,2
2013-09-19 16:58:28.672,132,2.64,51.03928,13.79353,123,1.099974,116.0156,6,5,1379602707,-0.6804047,-0.7701874,-0.7365265,17.40938,38.48149,21.21552,273.3753,270.2369,10,0.2279575,1.713681,0.3227402,-3.03504,-3.08439,-1.009157,-0.7721384,2.538224,0.2860056,-0.6082694,-1.235955,-1.031582,2
2013-09-19 16:58:28.686,133,2.66,51.03928,13.79353,123,1.099974,116.0156,6,5,1379602707,0.0144043,-0.6057129,-1.441238,16.53522,36.53149,26.04895,289.1403,286.0019,10,3.657677,-2.117242,-0.1842055,-3.039775,-3.050491,-1.042021,2.048727,-0.4915325,-0.136747,-0.2270543,-1.785377,-1.518589,2
2013-09-19 16:58:28.733,134,2.68,51.03928,13.79353,123,1.099974,116.0156,6,5,1379602707,-0.2577667,-0.1396332,-0.4353485,16.3335,37.13667,24.71799,289.8626,286.7242,10,4.442299,-4.106219,-0.2804724,-3.027363,-3.060887,-1.0845,3.642862,-2.123238,-0.1860906,0.1307099,-1.870291,-2.080488,2
2013-09-19 16:58:28.746,135,2.7,51.03928,13.79353,123,1.099974,116.0156,6,5,1379602707,0.561554,1.905548,1.266281,16.06451,38.21254,21.07535,285.211,282.0726,10,2.985279,-2.360184,0.09933005,-2.985359,3.084484,-1.257716,3.723047,-4.081541,-0.2940111,-0.275346,-1.091023,-0.7428371,2
2013-09-19 16:58:28.796,136,2.72,51.03928,13.79355,123,1.109662,114.6094,6,5,1379602708,0.561554,1.905548,1.266281,16.40073,40.16253,17.78299,280.0157,276.8773,10,-0.4347339,-3.027392,0.6611228,-2.996256,3.033525,-1.302668,2.970464,-2.366179,0.09744501,-0.3042856,-0.8532912,-0.5013427,2
2013-09-19 16:58:28.806,137,2.74,51.03928,13.79355,123,1.109662,114.6094,6,5,1379602708,-0.4646912,1.371918,-1.942856,17.34213,41.50734,12.73935,272.0732,268.9348,10,-4.969167,1.854855,0.1649597,-3.056732,2.865237,-1.297228,-3.852253,-3.082614,0.3209364,0.0770563,1.052308,1.751343,2
2013-09-19 16:58:28.851,138,2.76,51.03928,13.79355,123,1.109662,114.6094,6,5,1379602708,0.05818176,1.005692,-1.930725,17.34213,41.50734,12.73935,272.0732,268.9348,10,-0.7618403,-3.469079,-3.009858,-2.974475,2.989773,-1.224206,2.236479,2.07413,-1.319596,-0.5160655,0.4313813,-2.278641,2
2013-09-19 16:58:28.866,139,2.78,51.03928,13.79355,123,1.109662,114.6094,6,5,1379602708,-0.1756287,0.6445923,-0.7313843,16.93866,42.17974,13.2998,266.0523,262.9139,10,4.092195,1.926788,0.04120256,-2.630238,-3.095067,-1.195283,-0.4632843,-2.607231,-2.392506,-0.354586,0.5118956,-2.301839,2
2013-09-19 16:58:28.914,140,2.8,51.03928,13.79355,123,1.109662,114.6094,6,5,1379602708,0.05909729,1.782028,-0.8897552,16.33348,42.7849,12.66931,262.4211,259.2827,10,5.053769,1.6199,-0.6272194,-2.60028,-3.066863,-1.226791,4.07738,1.920792,0.03931758,-0.3228885,-0.7179618,-0.7123107,2
2013-09-19 16:58:28.926,141,2.82,51.03928,13.79355,123,1.109662,114.6094,6,5,1379602708,1.601562,2.031998,1.03775,15.39207,43.72629,12.24899,267.1615,264.0231,10,3.989298,1.709072,-1.909514,-2.240676,-2.695564,-1.353643,1.635289,-0.6720573,-2.977183,0.1520396,0.8055134,-1.084128,2
2013-09-19 16:58:28.978,142,2.84,51.03928,13.79355,123,1.109662,114.6094,6,5,1379602708,-0.2734985,2.003693,0.8726044,14.51791,45.00386,5.87442,277.1399,274.0015,10,5.714649,0.9261215,2.818293,-1.532345,-1.947614,-1.42682,8.361393,3.334685,0.9558297,1.645269,1.0356,-0.203903,2
2013-09-19 16:58:28.985,143,2.86,51.03928,13.79355,123,1.109662,114.6094,6,5,1379602708,-0.04194641,1.441452,0.9279175,14.92139,45.27283,1.951569,278.0096,274.8712,10,2.540066,2.140327,-0.4782601,0.01737356,-0.4123118,-1.406223,3.684095,0.2720309,-0.09005354,-1.914954,0.9971085,2.118425,2
2013-09-19 16:58:29.032,144,2.88,51.03928,13.79355,123,1.109662,114.6094,6,5,1379602708,-0.04194641,1.441452,0.9279175,14.92139,45.27283,1.951569,278.0096,274.8712,10,1.876006,-0.8236316,-0.5793414,0.06690015,-0.3371599,-1.366156,2.525233,2.134342,-0.4801339,-1.843297,0.7929149,2.162401,2
2013-09-19 16:58:29.046,145,2.9,51.03928,13.79355,123,1.109662,114.6094,6,5,1379602708,0.7518616,-0.2468262,0.2099152,14.58517,44.93662,-5.964142,276.4843,273.3459,10,0.4624337,-2.605103,-0.5793606,0.07203002,-0.4109382,-1.297346,1.079166,-3.397501,-0.5940325,0.9365379,-0.4074402,0.8957196,2
2013-09-19 16:58:29.092,146,2.92,51.03928,13.79355,123,1.109662,114.6094,6,5,1379602708,0.611618,-0.3961029,0.5165558,13.8455,44.60042,-8.415894,273.3816,270.2432,10,0.0146346,-1.146687,-0.2844996,0.05862059,-0.46351,-1.285268,0.4476012,-2.611089,-0.5812344,0.9353473,-0.8919165,0.8197405,2
2013-09-19 16:58:29.106,147,2.94,51.03928,13.79355,123,1.109662,114.6094,6,5,1379602708,-0.4207916,0.5124207,0.6452789,13.64377,44.53318,-8.906281,272.05,268.9116,10,-1.076897,1.416138,1.35519,0.04134469,-0.468173,-1.295053,-0.7172214,2.405063,0.6193239,0.98045,-1.069157,0.576019,2
2013-09-19 16:58:29.152,148,2.96,51.03928,13.79355,123,1.109662,114.6094,6,5,1379602708,-1.344055,0.3961182,0.3404846,13.44203,44.60042,-8.275818,272.5511,269.4128,10,-2.57498,1.250008,-0.2226821,0.07280365,-0.4117707,-1.313287,-1.091729,1.410152,1.353316,0.9583888,-0.7626511,0.4280417,2
2013-09-19 16:58:29.166,149,2.98,51.03928,13.79355,123,1.109662,114.6094,6,5,1379602708,-0.1832123,0.4510498,0.01338196,13.64378,45.07111,-4.002716,273.5276,270.3892,10,-3.453046,2.086465,-0.6993914,-0.3229573,-0.7116469,-1.414799,-2.748736,2.924999,-1.047921,-0.8566328,-0.8208038,0.1339682,2
2013-09-19 16:58:29.218,150,3,51.03928,13.79355,123,1.109662,114.6094,6,5,1379602708,1.144852,2.022461,0.4205475,13.64378,45.07111,-4.002716,273.5276,270.3892,10,-3.941031,0.4418605,-0.6862029,-0.5975186,-0.9506345,-1.437834,-3.467878,2.080479,-0.7012652,-0.4888411,-1.100472,0.04199651,2
2013-09-19 16:58:29.225,151,3.02,51.03928,13.79355,123,1.109662,114.6094,6,5,1379602708,0.4091187,2.012177,0.5350342,14.04724,45.60903,-0.3600769,278.2592,275.1208,10,-5.561453,0.4212838,1.649764,-2.030719,-2.381445,-1.424874,-5.177722,-0.8011923,1.74831,1.24504,1.033089,0.3151675,2
2013-09-19 16:58:29.276,152,3.04,51.03928,13.79355,123,1.109662,114.6094,6,5,1379602708,-0.7993469,1.988846,-0.6869659,14.38345,45.67627,3.352631,280.2164,277.078,10,-4.485494,-1.465382,0.9984868,-2.400578,-2.744773,-1.373951,-5.576285,0.4152986,1.64789,0.9709126,1.039453,0.5352731,2
2013-09-19 16:58:29.286,153,3.06,51.03928,13.79355,123,1.109662,114.6094,6,5,1379602708,0.6485138,2.016418,0.6923523,16.87144,45.0711,10.84805,271.5928,268.4544,10,-1.777957,-0.1846905,2.37011,-2.623399,-3.086892,-1.266658,-0.6458404,-4.088732,0.9911652,-1.258453,1.028851,-0.7456021,2
2013-09-19 16:58:29.333,154,3.08,51.03928,13.79355,123,1.109662,114.6094,6,5,1379602708,1.051346,1.475128,-0.1715851,17.6111,43.52456,13.58005,267.6763,264.5379,10,-3.400385,4.755694,2.087214,-2.723715,3.081817,-1.247584,-1.792789,-0.1906756,2.368237,-0.7559586,1.0512,1.110779,2
2013-09-19 16:58:29.346,155,3.1,51.03928,13.79355,123,1.109662,114.6094,6,5,1379602708,-0.3864288,-0.1558685,-0.5633392,18.35077,41.70905,17.4328,265.1765,262.0381,10,-1.626509,4.382007,0.09311556,-2.949231,3.122299,-1.072803,-2.669196,5.809798,0.6332635,0.8705304,-0.07036094,-1.105306,2
2013-09-19 16:58:29.394,156,3.12,51.03928,13.79355,123,1.109662,114.6094,6,5,1379602708,-1.003662,-0.6749878,-0.4037476,18.14905,39.89353,20.30487,268.6204,265.482,10,-0.6568043,2.919871,0.008110125,-2.956577,-3.099486,-1.045616,-1.641341,4.376021,0.09124183,0.2542897,-0.5476066,-1.087549,2
2013-09-19 16:58:29.405,157,3.14,51.03928,13.79355,123,1.109662,114.6094,6,5,1379602708,-0.006164551,-1.111633,-1.6026,16.3335,37.5401,25.41855,286.8717,283.7333,10,1.812102,0.4134142,0.1193741,-2.96625,-3.011922,-1.041674,0.9817799,1.058597,0.2255557,-0.6336727,-1.6893,-0.9129223,2
2013-09-19 16:58:29.459,158,3.16,51.03928,13.79355,123,1.109662,114.6094,6,5,1379602708,-0.1560822,-0.4842529,-1.018631,16.13176,37.47285,26.18912,291.045,287.9066,10,3.500102,-1.025879,0.1412501,-2.964683,-3.001954,-1.062375,1.797271,0.4074292,0.1175003,-0.2826169,-1.889765,-1.212804,2
2013-09-19 16:58:29.465,159,3.18,51.03928,13.79355,123,1.109662,114.6094,6,5,1379602708,-0.2981873,0.06404114,-0.3144684,16.26625,38.41423,23.6673,291.1333,287.9949,10,3.960843,-3.989536,0.06358883,-2.924116,-3.05598,-1.223631,4.541203,-4.175554,0.06813628,-0.1269895,-1.424594,-1.357619,2
2013-09-19 16:58:29.515,160,3.2,51.03928,13.79355,123,1.109662,114.6094,6,5,1379602708,-0.05873108,0.87146,0.08357239,17.00594,39.6918,20.51505,287.0334,283.895,10,1.315282,-2.766061,0.5886979,-2.915025,-3.104916,-1.281259,3.946011,-3.995521,0.06171513,-0.2314741,-1.191057,-0.8926929,2
2013-09-19 16:58:29.528,161,3.22,51.03928,13.79355,123,1.109662,114.6094,6,5,1379602708,-0.2924194,1.508621,2.004456,18.21629,40.4987,17.29269,281.3553,278.2169,10,-4.015679,-3.391109,0.4879281,-3.006026,2.957644,-1.343713,-1.537993,-3.849943,0.9135078,0.2714569,0.4280623,0.7081051,2
2013-09-19 16:58:29.573,162,3.24,51.03928,13.79355,123,1.109662,114.6094,6,5,1379602708,0.1010895,-0.6548767,-1.922806,19.29219,40.90214,14.91098,274.4302,271.2918,10,-1.229453,5.660915,-1.129864,-2.972733,2.92216,-1.247498,-2.971348,0.415728,0.04007298,-0.2415181,1.062137,1.694668,2
2013-09-19 16:58:29.585,163,3.26,51.03928,13.79355,123,1.109662,114.6094,6,5,1379602708,-0.8911743,1.984421,-1.35762,19.6284,42.31419,14.00031,264.7159,261.5775,10,-2.481834,-4.145431,-2.815323,-2.721022,-3.044991,-1.264144,0.1764559,-4.691996,-3.744087,-0.02462583,-1.490443,-2.226884,2
2013-09-19 16:58:29.635,164,3.28,51.03928,13.79355,123,1.109662,114.6094,6,5,1379602708,0.01831055,2.000763,-0.7090912,19.6284,42.31419,14.00031,264.7159,261.5775,10,0.4047909,0.8836153,-1.912433,-2.592694,-2.987016,-1.230522,-2.496665,-4.151415,-2.817197,0.2938004,-1.073217,-2.113946,2
2013-09-19 16:58:29.646,165,3.3,51.03928,13.79355,123,1.109662,114.6094,6,5,1379602708,1.074341,2.017273,-0.4880371,16.93869,43.7935,14.42059,269.786,266.6476,10,1.112387,-0.7765775,-1.676974,-2.257992,-2.624313,-1.282126,2.300678,1.151328,-2.222815,0.1590888,1.04214,-0.9565242,2
2013-09-19 16:58:29.695,166,3.32,51.03928,13.79355,123,1.109662,114.6094,6,5,1379602708,1.074341,2.017273,-0.4880371,15.32486,43.92798,13.15973,280.2719,277.1335,10,5.786942,-0.3374656,0.4925748,-2.143,-2.514547,-1.28146,1.097556,-0.7825621,-1.678848,1.373206,0.07249621,-1.405188,2
2013-09-19 16:58:29.705,167,3.34,51.03928,13.79355,123,1.109662,114.6094,6,5,1379602708,0.467804,2.016083,1.200211,14.18173,44.39867,10.00742,279.9486,276.8102,10,4.18809,-0.7756081,2.244386,-0.869025,-1.291063,-1.447895,5.600872,-0.7304299,2.497188,1.005751,1.027044,0.6306341,2
2013-09-19 16:58:29.781,168,3.36,51.03928,13.79355,123,1.109662,114.6094,6,5,1379602708,-0.979538,1.266815,0.8344269,14.24898,43.79351,6.154663,280.7521,277.6137,10,3.901537,2.718996,0.1083848,-0.2957862,-0.7367386,-1.443529,4.173259,-0.7815927,2.242513,0.5530815,1.02417,1.294219,2
2013-09-19 16:58:29.814,169,3.38,51.03927,13.79357,123,1.119695,112.1484,6,5,1379602709,-0.979538,1.266815,0.8344269,14.9214,42.44868,-6.03418,279.4701,276.3317,10,2.561115,4.483043,-1.420323,-0.01005439,-0.4347141,-1.403431,3.886706,2.713011,0.1065112,-0.2363763,1.019405,1.513289,2
2013-09-19 16:58:29.826,170,3.4,51.03927,13.79357,123,1.119695,112.1484,6,5,1379602709,1.023697,0.1353302,0.05453491,14.31622,41.84351,-7.925537,276.5638,273.4254,10,-0.8258071,0.3632778,-0.08483979,-0.01608211,-0.5257326,-1.266813,-0.1583759,-2.171704,-0.5071053,1.107902,-1.363286,0.4659482,2
2013-09-19 16:58:29.878,171,3.42,51.03927,13.79357,123,1.119695,112.1484,6,5,1379602709,0.2703705,0.367981,0.4079742,13.71103,41.64179,-8.696106,273.7419,270.6035,10,-1.00708,0.4742906,1.066567,-0.04040656,-0.5555409,-1.272472,-0.8406373,0.3572933,-0.08671335,1.049408,-1.601506,0.8029561,2
2013-09-19 16:58:29.885,172,3.44,51.03927,13.79357,123,1.119695,112.1484,6,5,1379602709,-0.662735,0.01455688,-0.2791443,13.57654,41.77628,-8.696136,273.1913,270.0529,10,-2.835967,3.712272,-1.399112,-0.06104957,-0.5379417,-1.363438,-2.688478,1.584933,0.1889483,-0.5457759,-0.5533004,1.014674,2
2013-09-19 16:58:29.933,173,3.46,51.03927,13.79357,123,1.119695,112.1484,6,5,1379602709,-0.1184998,0.3148193,-0.06964111,13.57654,42.04524,-7.435242,270.8691,267.7307,10,-2.520694,3.560262,-1.579457,-0.23109,-0.6610533,-1.389734,-2.850797,3.706288,-1.400986,-0.9397514,-0.6575878,0.7948056,2
2013-09-19 16:58:29.946,174,3.48,51.03927,13.79357,123,1.119695,112.1484,6,5,1379602709,1.08287,2.021347,0.3768158,14.24896,43.7935,-0.9906006,279.6942,276.5558,10,-4.701517,0.5188597,0.3430362,-1.03064,-1.325916,-1.422246,-3.670351,1.611314,-0.5693542,0.02508974,-0.6741673,-0.0337587,2
2013-09-19 16:58:29.995,175,3.5,51.03927,13.79357,123,1.119695,112.1484,6,5,1379602709,0.1952515,2.008652,0.4506378,14.24896,43.7935,-0.9906006,279.6942,276.5558,10,-5.533902,0.8019468,1.555042,-1.440838,-1.720671,-1.424617,-4.716427,0.5128878,0.3411919,0.7550953,-0.3202674,0.1380105,2
2013-09-19 16:58:30.006,176,3.52,51.03927,13.79357,123,1.119695,112.1484,6,5,1379602709,-1.246094,1.985519,0.02301025,14.38345,44.73488,6.434784,277.5854,274.447,10,-2.077248,-4.478471,-0.308977,-2.461712,-2.712006,-1.330377,-3.227691,-1.136756,0.3933777,-0.194316,1.030028,0.1905232,2
2013-09-19 16:58:30.053,177,3.54,51.03927,13.79357,123,1.119695,112.1484,6,5,1379602709,-0.262619,2.006866,1.532928,15.19035,45.13833,10.63782,280.6701,277.5317,10,-1.870497,-1.381542,1.976045,-2.49978,-2.794058,-1.299588,-2.092158,-4.484443,-0.3108212,-0.5943828,1.02996,-0.3044007,2
2013-09-19 16:58:30.065,178,3.56,51.03927,13.79357,123,1.119695,112.1484,6,5,1379602709,0.7873688,1.277985,-0.4665833,16.26624,44.6004,14.00024,270.9351,267.7967,10,-3.367706,5.008407,2.257614,-2.842735,-3.128427,-1.165003,-3.855235,5.364458,2.549098,1.240915,1.103839,-0.2309869,2
2013-09-19 16:58:30.113,179,3.58,51.03927,13.79357,123,1.119695,112.1484,6,5,1379602709,-0.4561005,0.1923981,-0.7891846,16.53522,42.85213,17.92307,271.2637,268.1253,10,-2.630962,5.589629,0.7911487,-2.925486,-3.134831,-1.116333,-3.382616,5.002435,2.25577,1.254799,0.7471178,-0.7751669,2
2013-09-19 16:58:30.126,180,3.6,51.03927,13.79357,123,1.119695,112.1484,6,5,1379602709,-0.6168671,-0.6488342,-0.8766785,16.87143,41.30559,22.05606,276.9064,273.768,10,-0.0579637,1.657097,0.6795878,-2.990754,-3.002514,-1.027937,-0.9968014,2.755388,0.4911911,-0.3844856,-0.663837,-1.300783,2
2013-09-19 16:58:30.173,181,3.62,51.03927,13.79357,123,1.119695,112.1484,6,5,1379602709,-0.02627563,-1.097809,-1.529739,16.80418,40.16249,24.78802,285.0758,281.9374,10,0.7199534,0.4608182,0.4280246,-3.009669,-2.991055,-1.024196,-0.07287378,1.651125,0.6777437,-1.120855,-1.249102,-1.215232,2
2013-09-19 16:58:30.186,182,3.64,51.03927,13.79357,123,1.119695,112.1484,6,5,1379602709,-0.02644348,-0.8323212,-1.577179,16.13174,40.29698,26.88953,293.997,290.8586,10,4.129498,-3.194343,-0.04027019,-3.017958,-3.008426,-1.077085,2.509041,-1.679129,0.05719814,0.0366453,-1.978389,-1.999441,2
2013-09-19 16:58:30.231,183,3.66,51.03927,13.79357,123,1.119695,112.1484,6,5,1379602709,-0.2011108,-0.3006439,-0.5367889,17.20763,41.50732,24.50778,291.3261,288.1877,10,4.430093,-5.520001,0.1278847,-3.004197,-3.03287,-1.126402,4.114588,-3.200315,-0.04211432,0.06213665,-1.994592,-2.266072,2
2013-09-19 16:58:30.246,184,3.68,51.03927,13.79357,123,1.119695,112.1484,6,5,1379602709,0.5045624,2.018677,1.651672,18.08179,43.05386,20.23468,283.9035,280.7651,10,0.4646723,-0.2554709,0.1731689,-3.011319,3.042191,-1.307813,3.660876,-3.957438,0.1742406,-0.3910325,-0.993588,-0.2508062,2
2013-09-19 16:58:30.292,185,3.7,51.03927,13.79357,123,1.119695,112.1484,6,5,1379602709,0.2034912,2.0159,2.012329,19.6956,45.0711,17.15247,278.3347,275.1964,10,-2.594998,-3.628998,0.3083227,-3.063403,2.960551,-1.363351,0.4497626,-0.2614424,0.1713247,0.08004226,0.2378857,0.940838,2
2013-09-19 16:58:30.306,186,3.72,51.03927,13.79357,123,1.119695,112.1484,6,5,1379602709,0.2658997,-0.1603699,-1.92157,19.62836,45.4073,14.84079,274.7283,271.5899,10,1.786111,5.048508,-0.8803945,-2.967849,3.022826,-1.251829,-3.151674,6.167009,-0.8709105,0.2307882,1.067286,1.702249,2
2013-09-19 16:58:30.353,187,3.74,51.03927,13.79357,123,1.119695,112.1484,6,5,1379602709,-0.1505737,1.152832,-1.36615,19.83009,46.28143,13.6499,267.0488,263.9104,10,1.596834,-6.876534,-2.717453,-2.924433,-3.128191,-1.24697,1.771201,5.042536,-0.8822386,0.5773231,-0.5952569,0.3121727,2
2013-09-19 16:58:30.366,188,3.76,51.03927,13.79357,123,1.119695,112.1484,6,5,1379602709,0.5456085,0.8239899,-0.8324127,17.3421,48.09695,15.12097,269.3134,266.175,10,4.183505,6.270278,-0.8470208,-2.614413,-3.048869,-1.202464,-2.669692,-3.869678,-2.06496,-0.1172354,0.2199028,-1.724663,2
2013-09-19 16:58:30.414,189,3.78,51.03927,13.79357,123,1.119695,112.1484,6,5,1379602709,0.5456085,0.8239899,-0.8324127,15.25758,49.10555,15.05093,277.2175,274.0791,10,1.802942,1.140362,-1.408122,-2.556752,-2.942927,-1.225958,4.168595,6.264306,-0.8488648,-1.756556,1.037447,0.02837612,2
2013-09-19 16:58:30.426,190,3.8,51.03927,13.79357,123,1.119695,112.1484,6,5,1379602709,1.357483,2.022995,-0.1445618,14.71965,50.71934,13.36972,276.4293,273.2909,10,6.609662,-0.5538155,0.9085443,-2.106682,-2.430125,-1.338687,3.590173,-2.006393,-0.7799861,0.9242455,0.6882089,-1.121416,2
2013-09-19 16:58:30.475,191,3.82,51.03927,13.79357,123,1.119695,112.1484,6,5,1379602709,0.2265778,2.010941,1.28125,13.97998,51.72794,9.937225,279.8409,276.7025,10,6.844098,-0.2226589,2.4364,-1.817859,-2.163415,-1.395308,6.594753,-0.5597868,0.9067003,1.211545,1.030907,-0.9389446,2
2013-09-19 16:58:30.486,192,3.84,51.03927,13.79357,123,1.119695,112.1484,6,5,1379602709,-1.438782,1.457443,1.599319,14.18172,52.19864,5.383972,278.473,275.3346,10,3.386207,2.676553,-0.6962709,-0.0850158,-0.4741648,-1.432966,3.95469,-0.4215386,0.7871411,-0.6302291,1.00837,1.291349,2
2013-09-19 16:58:30.534,193,3.86,51.03927,13.79357,123,1.119695,112.1484,6,5,1379602709,0.09318542,1.094543,0.818222,14.71965,52.33312,0.9007263,278.1954,275.057,10,1.756411,-0.8656922,-0.675812,0.01903818,-0.348162,-1.384671,3.371298,2.670581,-0.698115,-1.780676,1.002104,1.968414,2
2013-09-19 16:58:30.546,194,3.88,51.03927,13.79357,123,1.119695,112.1484,6,5,1379602709,0.7336273,-0.2595215,0.07835388,14.65237,52.1314,-7.015015,279.8971,276.7587,10,1.288287,-2.82373,-0.6522401,0.009504174,-0.3482979,-1.297546,1.44603,-2.696259,-0.4500836,0.1852891,0.1316446,1.071881,2
2013-09-19 16:58:30.595,195,3.9,51.03927,13.79357,123,1.119695,112.1484,6,5,1379602709,0.77211,-0.4228363,0.6077271,14.24893,52.1314,-8.556091,279.0119,275.8735,10,0.08051881,-1.417934,-0.3378121,0.009004977,-0.3878595,-1.277161,1.273379,-2.829701,-0.6540841,0.8593748,-0.3717334,0.8545443,2
2013-09-19 16:58:30.606,196,3.92,51.03927,13.79357,123,1.119695,112.1484,6,5,1379602709,0.5115509,0.228363,0.09011841,13.97995,52.1314,-9.116516,277.6541,274.5157,10,-1.192744,1.199296,0.9941423,-0.0291447,-0.4557151,-1.266286,-0.5253594,2.248646,0.4823214,0.9319119,-0.8740684,0.3320174,2
2013-09-19 16:58:30.653,197,3.94,51.03927,13.79357,123,1.119695,112.1484,6,5,1379602709,-0.820755,0.2957001,0.5917816,13.84546,52.53484,-8.556091,278.6544,275.516,10,-2.290683,1.353649,0.2869295,-0.008985372,-0.4147927,-1.282547,-1.207653,1.193324,0.9922983,0.6261134,-0.73038,0.350286,2
2013-09-19 16:58:30.666,198,3.96,51.03927,13.79357,123,1.119695,112.1484,6,5,1379602709,-0.287674,0.3217316,0.04847717,13.57651,52.93829,-6.734802,280.0078,276.8694,10,-2.972267,1.79703,-0.6743361,-0.2905777,-0.6017732,-1.36141,-2.783056,2.841905,-1.749175,-1.031698,-0.7021424,0.5278519,2
2013-09-19 16:58:30.718,199,3.98,51.03927,13.79357,123,1.119695,112.1484,6,5,1379602709,0.2624512,0.968277,-0.007797241,13.97995,53.34173,-3.792664,281.9841,278.8457,10,-4.067519,1.698448,-0.5544462,-0.4781191,-0.7559746,-1.38379,-2.987175,1.791059,-0.67618,-0.2246484,-0.9864714,-0.01398654,2
2013-09-19 16:58:30.725,200,4,51.03927,13.79357,123,1.119695,112.1484,6,5,1379602709,0.4054108,2.010132,0.09777832,14.45065,54.21587,6.364655,287.1796,284.0412,10,-5.524114,0.1095627,1.492538,-1.48896,-1.691855,-1.429571,-4.924314,0.7903973,0.1864623,0.8941966,0.7927011,0.24321,2
2013-09-19 16:58:30.782,201,4.02,51.03926,13.79359,122,1.245904,112.1484,4,5,1379602710,-0.3417206,1.998795,0.02001953,14.45065,54.21587,6.364655,287.1796,284.0412,10,-3.700967,-3.541373,0.3703403,-2.001467,-2.194854,-1.416399,-5.539022,0.1035918,1.490694,1.378521,1.035013,0.1224802,2
2013-09-19 16:58:30.845,202,4.04,51.03926,13.79359,122,1.245904,112.1484,4,5,1379602710,1.157593,1.605911,-0.1072693,17.07312,50.6521,21.28546,276.1447,273.0063,10,-3.341228,4.251061,2.673684,-2.759964,-3.10121,-1.243016,-2.074289,1.409665,2.60506,-0.9916107,1.047198,0.7716584,2
2013-09-19 16:58:30.921,203,4.06,51.03926,13.79359,122,1.245904,112.1484,4,5,1379602710,-0.7683563,-0.3262787,-0.6620331,17.00589,44.39869,27.94028,279.9861,276.8477,10,-0.5409176,2.789722,0.5376397,-3.043804,-3.080653,-1.046392,-2.961955,5.951755,0.7632442,1.138678,0.3847742,-1.145047,2
2013-09-19 16:58:30.969,204,4.08,51.03926,13.79359,122,1.245904,112.1484,4,5,1379602710,-0.3683624,-0.8343811,-1.144958,14.38341,40.16249,32.49353,299.8153,296.6769,10,1.224379,-0.2232658,0.1850966,-3.081513,-3.001056,-1.007145,-0.5558254,2.783751,0.5357959,-0.6935179,-1.171589,-1.191042,2
2013-09-19 16:58:31.018,205,4.1,51.03926,13.79359,122,1.245904,112.1484,4,5,1379602710,0.1016083,1.264984,1.048325,15.59377,41.91075,28.991,294.0404,290.902,10,3.657544,-2.846627,-0.09572413,-3.021724,3.124728,-1.276646,4.367608,-5.232708,-0.3673725,-0.2824618,-1.342623,-0.8577872,2
2013-09-19 16:58:31.025,206,4.12,51.03926,13.79359,122,1.245904,112.1484,4,5,1379602710,0.06680298,2.01387,2.009567,17.00587,43.72626,24.43771,288.4532,285.3148,10,-2.55242,-2.826048,0.6919097,-3.085377,2.986728,-1.377345,-0.1425279,-0.8675688,0.7378271,0.4895117,1.036033,1.129054,2
2013-09-19 16:58:31.078,207,4.14,51.03926,13.79359,122,1.245904,112.1484,4,5,1379602710,0.095047,1.043625,-1.93013,17.88004,44.86936,21.28546,285.7895,282.6511,10,-4.238371,0.9652377,0.3409413,-3.112145,2.92804,-1.350996,-2.567404,-2.832003,0.6900944,0.2162271,1.040691,1.769554,2
2013-09-19 16:58:31.085,208,4.16,51.03926,13.79359,122,1.245904,112.1484,4,5,1379602710,-0.1165009,1.006058,-1.934265,17.88004,45.67625,18.90372,277.0988,273.9604,10,-3.455764,-5.428648,-3.771633,-2.980379,3.119271,-1.286418,1.718324,-2.531115,-2.468687,0.08878489,0.08378863,-2.210621,2
