time,timestamp,recordtime,lat,long,alt,speed,course,verticalAccuracy,horizontalAccuracy,locTimeStamp,accelerationX,accelerationY,accelerationZ,HeadingX,HeadingY,HeadingZ,TrueHeading,MagneticHeading,HeadingAccuracy,RotationX,RotationY,RotationZ,motionYaw,motionRoll,motionPitch,motionRotationRateX,motionRotationRateY,motionRotationRateZ,motionUserAccelerationX,motionUserAccelerationY,motionUserAccelerationZ,Event
2013-09-19 16:56:53.766,1,0.02,51.03962,13.79292,103,-1,-1,96,100,1379602613,0.02410889,-0.3421478,-1.082184,14.81874,-4.372559,-48.91495,308.3547,305.2163,10,0.03060904,0.1728075,-0.003016563,0.028881,0.01099207,0.2945859,-0.04965181,0.5056925,0.0458232,0.01639816,-0.03387512,-0.08576842,1
2013-09-19 16:56:53.799,2,0.04,51.03953,13.793,102,0.92,-1,48,50,1379602613,0.02410889,-0.3421478,-1.082184,15.76047,-4.238037,-48.35431,306.5759,303.4375,10,-0.02839489,-0.2275261,0.03593217,0.02914676,0.01542586,0.2944804,0.02243572,0.1682356,-0.007058377,0.008416862,-0.04995206,-0.1272977,1
2013-09-19 16:56:53.838,3,0.06,51.03953,13.793,102,0.92,-1,48,50,1379602613,0.06689453,-0.3575287,-0.9258575,17.30757,-4.977951,-47.86377,305.1462,302.0078,10,-0.1652401,-0.143367,0.2065676,0.02914676,0.01542586,0.2944804,0.02243572,0.1682356,-0.007058377,0.008416862,-0.04995206,-0.1272977,1
2013-09-19 16:56:53.873,4,0.08,51.03953,13.793,102,0.92,-1,48,50,1379602613,0.0579834,-0.3494568,-1.067932,17.30757,-4.977951,-47.86377,305.1462,302.0078,10,-0.1652401,-0.143367,0.2065676,0.02914661,0.01357272,0.2943796,-0.0365682,-0.232098,0.03189036,0.01112043,-0.05200167,-0.1252896,1
2013-09-19 16:56:53.894,5,0.09999999,51.03953,13.793,102,0.92,-1,48,50,1379602613,-0.04154968,-0.3372955,-0.8847046,16.70218,-6.121475,-48.07397,307.9151,304.7767,10,0.09130781,-0.5222161,-0.2592885,0.009507141,0.02077288,0.3504908,-0.07458122,-0.2766962,-0.2580374,-0.008171295,-0.08210201,-0.02533854,1
2013-09-19 16:56:53.930,6,0.12,51.03953,13.793,102,0.92,-1,48,50,1379602613,-0.04154968,-0.3372955,-0.8847046,16.63492,-6.726868,-48.00391,307.7331,304.5947,10,0.1870674,-0.5551735,-0.2399324,0.005469848,0.01582736,0.3507764,0.08306994,-0.5267943,-0.2633618,0.03549105,-0.1030587,-0.05727303,1
2013-09-19 16:56:53.954,7,0.14,51.03953,13.793,102,0.92,-1,48,50,1379602613,0.08711243,-0.399765,-0.9715881,15.89499,-6.390533,-48.07397,309.1509,306.0125,10,-0.2332447,-0.0313984,0.1001748,-0.001179403,-0.005099732,0.3476757,-0.3141576,-0.09670942,0.1100747,0.1422458,-0.1367035,0.04228204,1
2013-09-19 16:56:53.989,8,0.16,51.03953,13.793,102,0.92,-1,48,50,1379602613,0.0003967285,-0.3674011,-0.9319916,15.89499,-6.390533,-48.07397,309.1509,306.0125,10,-0.164031,0.09355312,0.04715073,-0.001179403,-0.005099732,0.3476757,-0.3141576,-0.09670942,0.1100747,0.1422458,-0.1367035,0.04228204,1
2013-09-19 16:56:54.014,9,0.18,51.03953,13.793,102,0.92,-1,48,50,1379602613,-0.06304932,-0.3887634,-0.8839417,15.76045,-5.583344,-48.35428,310.3817,307.2433,10,-0.3616498,-0.3963806,-0.3543618,5.571824e-05,-0.001539345,0.3367172,-0.212258,0.05063534,-0.1636153,0.0001864218,-0.04569298,0.05723131,1
2013-09-19 16:56:54.047,10,0.2,51.03953,13.793,102,0.92,-1,48,50,1379602613,-0.06304932,-0.3887634,-0.8839417,15.49138,-4.910675,-48.35428,311.896,308.7576,10,-0.502979,-0.9670798,-0.5797683,-0.004243676,-0.003326486,0.33235,-0.3699512,-0.4009755,-0.3584684,-0.05006295,-0.05943111,0.05860003,1
2013-09-19 16:56:54.053,11,0.22,51.03953,13.793,102,0.92,-1,48,50,1379602613,-0.04243469,-0.3162842,-1.022827,15.49138,-4.910675,-48.35428,311.896,308.7576,10,-0.4948832,-0.4670284,-0.4351355,-0.02145534,-0.02583709,0.3179501,-0.6345292,-1.306116,-0.6546465,-0.006909005,-0.0216695,0.04189216,1
2013-09-19 16:56:54.074,12,0.24,51.03953,13.793,102,0.92,-1,48,50,1379602613,0.03495789,-0.3569183,-1.115662,14.75145,-4.439819,-48.56451,313.1853,310.0469,10,-0.07218178,0.0760732,-0.1859155,-0.02932718,-0.03455083,0.310105,-0.5031845,-0.4716233,-0.4392421,0.01313613,0.007352864,0.02291542,1
2013-09-19 16:56:54.109,13,0.26,51.03953,13.793,102,0.92,-1,48,50,1379602613,0.03495789,-0.3569183,-1.115662,14.68419,-3.968964,-49.05505,311.1659,308.0275,10,0.3253869,0.232731,0.02529737,-0.0334058,-0.03432766,0.3070609,-0.080483,0.07147831,-0.1900221,-0.009719095,-0.01402586,-0.07016268,1
2013-09-19 16:56:54.134,14,0.28,51.03953,13.793,102,0.92,-1,48,50,1379602613,-0.1255341,-0.3837585,-0.8765564,14.95325,-3.968964,-48.91492,310.5276,307.3892,10,0.1795351,-0.6935327,-0.4843129,-0.03449083,-0.02711298,0.3257542,0.2528365,-0.2918049,-0.1662092,-0.0998501,-0.06373514,0.07050504,1
2013-09-19 16:56:54.170,15,0.3,51.03953,13.793,102,0.92,-1,48,50,1379602613,-0.1332855,-0.3898315,-0.8921204,13.74248,-3.69989,-49.19522,314.2927,311.1543,10,0.1124544,-0.9333211,-0.6587893,-0.03449083,-0.02711298,0.3257542,0.2528365,-0.2918049,-0.1662092,-0.0998501,-0.06373514,0.07050504,1
2013-09-19 16:56:54.194,16,0.32,51.03953,13.793,102,0.92,-1,48,50,1379602613,-0.020401,-0.3785095,-0.9246368,13.13707,-3.632614,-49.40546,315.4978,312.3594,10,-0.2397343,-0.4704794,-0.230674,-0.06583919,-0.06118608,0.3318291,-0.1122511,-0.6999352,-0.4094867,0.03240629,-0.03985824,0.05074979,1
2013-09-19 16:56:54.228,17,0.34,51.03953,13.793,102,0.92,-1,48,50,1379602613,-0.07725525,-0.4000702,-0.9411469,12.66623,-3.161758,-49.33536,316.2292,313.0908,10,-0.3149127,-0.2757906,-0.09254671,-0.07058918,-0.06607307,0.3311213,-0.2480178,-0.4750702,-0.2347811,0.04203742,-0.05340589,0.01897806,1
2013-09-19 16:56:54.233,18,0.36,51.03953,13.793,102,0.92,-1,48,50,1379602613,-0.07725525,-0.4000702,-0.9411469,12.66623,-3.161758,-49.33536,316.2292,313.0908,10,-0.3493921,-0.1565811,0.03920386,-0.07292848,-0.07005758,0.3269882,-0.3231962,-0.2803814,-0.09665383,0.01517431,-0.07346105,0.03107096,1
2013-09-19 16:56:54.254,19,0.38,51.03953,13.793,102,0.92,-1,48,50,1379602613,-0.1574554,-0.427597,-0.8895569,11.92632,-3.229019,-49.12512,315.8204,312.682,10,-0.4573564,-0.2006902,0.1553331,-0.07209277,-0.07572693,0.3208534,-0.34987,-0.1218059,0.1230943,-0.03042497,-0.1165693,0.0008734372,1
2013-09-19 16:56:54.287,20,0.4,51.03953,13.793,102,0.92,-1,48,50,1379602613,-0.1242676,-0.4116211,-0.9468689,11.52271,-2.556366,-49.12512,316.6263,313.4879,10,-0.618778,-0.1979424,0.05694371,-0.07039706,-0.07864796,0.3149713,-0.46562,-0.2052883,0.1512293,-0.0466208,-0.1252084,0.04266904,1
2013-09-19 16:56:54.293,21,0.42,51.03953,13.793,102,0.92,-1,48,50,1379602613,-0.06694031,-0.4060974,-0.9968872,11.52271,-2.556366,-49.12512,316.6263,313.4879,10,-0.2894752,-0.1080165,-0.06662137,-0.07017433,-0.08339558,0.2974945,-0.6587663,-0.07926963,0.01318382,-0.06542537,-0.1440844,0.07314301,1
2013-09-19 16:56:54.314,22,0.44,51.03953,13.793,102,0.92,-1,48,50,1379602613,-0.07795715,-0.4037628,-0.8861389,11.11911,-2.421844,-49.26526,316.0724,312.934,10,0.06205245,-0.1281753,-0.05172232,-0.07236207,-0.08630024,0.2913827,0.01325942,-0.1506351,-0.05859466,0.01561959,-0.1188205,-0.0426043,1
2013-09-19 16:56:54.349,23,0.46,51.03953,13.793,102,0.92,-1,48,50,1379602613,-0.07795715,-0.4037628,-0.8861389,11.11911,-2.556366,-49.26526,314.7435,311.6051,10,0.06205245,-0.1281753,-0.05172232,-0.07236207,-0.08630024,0.2913827,0.01325942,-0.1506351,-0.05859466,0.01561959,-0.1188205,-0.0426043,1
2013-09-19 16:56:54.374,24,0.48,51.03953,13.793,102,0.92,-1,48,50,1379602613,-0.1130981,-0.4042969,-0.8878021,10.64824,-1.6819,-49.61566,315.9524,312.814,10,-0.1360122,0.1278717,-0.06498885,-0.07482086,-0.08765835,0.2941176,-0.1582431,0.1274286,-0.01615487,-0.0159447,-0.1120973,0.09480211,1
2013-09-19 16:56:54.410,25,0.5,51.03953,13.793,102,0.92,-1,48,50,1379602613,-0.1296082,-0.4045715,-0.8958588,10.64824,-1.6819,-49.61566,315.9524,312.814,10,-0.1081699,0.05308319,-0.1463562,-0.07529345,-0.08710207,0.2971046,-0.1442151,0.1232599,-0.06908637,-0.02991745,-0.111544,0.0647611,1
2013-09-19 16:56:54.434,26,0.52,51.03953,13.793,102,0.92,-1,48,50,1379602613,-0.05636597,-0.3517151,-0.9776001,10.91731,-1.547348,-50.1763,316.8548,313.7164,10,-0.2767815,0.07206434,0.1462027,-0.08220152,-0.08479827,0.2962767,-0.2330609,-0.09044002,-0.01946392,0.05146544,-0.07663018,0.07445348,1
2013-09-19 16:56:54.468,27,0.54,51.03953,13.793,102,0.92,-1,48,50,1379602613,-0.06912231,-0.355835,-0.9788208,10.91731,-1.547348,-50.1763,316.8548,313.7164,10,-0.1651658,0.07335491,0.1764134,-0.08096664,-0.08480232,0.2921417,-0.2850543,0.06744017,0.1420589,0.04346846,-0.0740262,0.02913913,1
2013-09-19 16:56:54.473,28,0.56,51.03953,13.793,102,0.92,-1,48,50,1379602613,-0.06912231,-0.355835,-0.9788208,11.25365,-0.8074188,-50.10623,317.3423,314.2039,10,-0.03979002,0.09981555,0.1776688,-0.07879182,-0.08443176,0.2890328,-0.1734385,0.06873075,0.1722696,0.02446744,-0.06668975,-0.0224946,1
2013-09-19 16:56:54.494,29,0.58,51.03953,13.793,102,0.92,-1,48,50,1379602613,-0.09030151,-0.4031067,-0.9153442,11.05185,-0.3365631,-50.31647,318.117,314.9786,10,0.07781704,0.05377561,0.09231795,-0.07208641,-0.08212577,0.2906567,0.06432606,0.07483401,0.1205681,-0.02004015,-0.1019531,0.02381181,1
2013-09-19 16:56:54.529,30,0.6,51.03953,13.793,102,0.92,-1,48,50,1379602613,-0.09030151,-0.4031067,-0.9153442,11.38817,-0.5383606,-50.1062,317.3566,314.2182,10,0.07781704,0.05377561,0.09231795,-0.07208641,-0.08212577,0.2906567,0.06432606,0.07483401,0.1205681,-0.02004015,-0.1019531,0.02381181,1
2013-09-19 16:56:54.533,31,0.62,51.03953,13.793,102,0.92,-1,48,50,1379602613,-0.06314087,-0.4115601,-0.9137878,11.72452,-0.7401428,-49.61566,316.7194,313.581,10,0.1130523,0.06291026,0.1385334,-0.07208641,-0.08212577,0.2906567,0.06432606,0.07483401,0.1205681,-0.02004015,-0.1019531,0.02381181,1
2013-09-19 16:56:54.554,32,0.64,51.03953,13.793,102,0.92,-1,48,50,1379602613,-0.1453247,-0.4087524,-0.8942413,11.92632,-0.2693024,-49.68573,317.4706,314.3322,10,-0.03955007,0.2123716,0.2772505,-0.06252661,-0.07993446,0.2986628,0.02397317,0.1919263,0.2245023,-0.007639369,-0.1184925,0.06357996,1
2013-09-19 16:56:54.590,33,0.66,51.03953,13.793,102,0.92,-1,48,50,1379602613,-0.1453247,-0.4087524,-0.8942413,11.92632,-0.2693024,-49.68573,317.4706,314.3322,10,-0.1138701,0.2057502,0.2016133,-0.05890939,-0.07825663,0.3040477,-0.04775436,0.2077432,0.2731088,0.002172794,-0.1279835,0.05274436,1
2013-09-19 16:56:54.614,34,0.68,51.03953,13.793,102,0.92,-1,48,50,1379602613,-0.08244324,-0.4958344,-0.98909,12.06084,-0.5383606,-49.40543,317.5085,314.3701,10,-0.4061427,0.3718244,0.2831513,-0.04944397,-0.07088226,0.2993524,-0.430196,0.4110507,0.2629021,-0.01419014,-0.1412558,0.09601155,1
2013-09-19 16:56:54.650,35,0.7,51.03953,13.793,102,0.92,-1,48,50,1379602613,-0.1687164,-0.3870392,-1.028931,12.73351,-0.5383606,-49.40543,316.3898,313.2514,10,-0.1307905,0.1777735,0.03378326,-0.04604355,-0.06648697,0.2929055,-0.4143165,0.3671917,0.2790115,-0.0188349,-0.2070991,-0.03379632,1
2013-09-19 16:56:54.674,36,0.72,51.03953,13.793,102,0.92,-1,48,50,1379602613,-0.09809875,-0.3920746,-1.064163,13.06982,-0.3365631,-49.61569,316.2303,313.0919,10,0.07441378,0.4269841,0.0226422,-0.04307246,-0.05526972,0.2844824,0.01637661,0.2286261,-0.02324679,-0.05877989,-0.1046695,-0.09358422,1
2013-09-19 16:56:54.709,37,0.74,51.03953,13.793,102,0.92,-1,48,50,1379602613,-0.06559753,-0.4062195,-1.028702,13.54068,-0.2692871,-48.70468,315.3113,312.1729,10,0.06770395,0.6583691,0.062347,-0.04307246,-0.05526972,0.2844824,0.01637661,0.2286261,-0.02324679,-0.05877989,-0.1046695,-0.09358422,1
2013-09-19 16:56:54.734,38,0.76,51.03953,13.793,102,0.92,-1,48,50,1379602613,-0.1016235,-0.3345642,-1.169678,15.15506,0.1343079,-48.00391,314.8786,311.7402,10,-0.02184112,0.3447342,-0.06731272,-0.04032399,-0.02530585,0.2867419,-0.01654346,0.5459006,0.0519112,-0.03696349,-0.1125876,-0.09199421,1
2013-09-19 16:56:54.768,39,0.78,51.03953,13.793,102,0.92,-1,48,50,1379602613,-0.1016235,-0.3345642,-1.169678,15.15506,0.1343079,-48.00391,314.8786,311.7402,10,-0.1068482,0.2485211,-0.1763798,-0.04067935,-0.01957721,0.2864797,-0.03001159,0.3401009,-0.07145201,-0.06249017,-0.1053775,-0.1192626,1
2013-09-19 16:56:54.773,40,0.8,51.03953,13.793,102,0.92,-1,48,50,1379602613,-0.06938171,-0.2572784,-1.377823,15.76045,0.3361206,-47.79367,314.8868,311.7484,10,0.1425931,0.2802133,-0.3005188,-0.04280515,-0.01534443,0.2852133,-0.1150186,0.2438878,-0.1805191,-0.08689957,-0.05320204,-0.210189,1
2013-09-19 16:56:54.794,41,0.82,51.03953,13.793,102,0.92,-1,48,50,1379602613,0.1204987,-0.1729736,-1.197723,16.02951,0.8742371,-47.6535,315.5396,312.4012,10,0.3579771,0.3296003,-0.1921548,-0.05078094,-0.006504667,0.2850292,0.1344227,0.2755799,-0.3046581,-0.01425037,0.05595052,-0.45594,1
2013-09-19 16:56:54.830,42,0.84,51.03953,13.793,102,0.92,-1,48,50,1379602613,0.1204987,-0.1729736,-1.197723,16.02951,0.8742371,-47.6535,315.5396,312.4012,10,0.4713414,0.4210942,0.04641996,-0.05431705,-0.00125027,0.2888867,0.3498067,0.324967,-0.196294,0.04256504,0.09016778,-0.436596,1
2013-09-19 16:56:54.853,43,0.86,51.03953,13.793,102,0.92,-1,48,50,1379602613,0.0489502,-0.2463684,-0.8774719,16.29857,1.008774,-48.63458,317.5476,314.4092,10,0.2554126,0.2322498,0.2888848,-0.04536178,0.0188304,0.3114468,0.3112471,0.3403894,0.2655304,0.02177994,0.06667475,0.04121527,1
2013-09-19 16:56:54.890,44,0.88,51.03953,13.793,102,0.92,-1,48,50,1379602613,0.05636597,-0.2445068,-0.9227142,16.02951,0.6051941,-48.91489,319.3878,316.2494,10,0.1852972,0.1396205,0.3018866,-0.04536178,0.0188304,0.3114468,0.3112471,0.3403894,0.2655304,0.02177994,0.06667475,0.04121527,1
2013-09-19 16:56:54.914,45,0.9,51.03954,13.79297,102,0.92,-1,24,30,1379602614,0.09361267,-0.2080994,-1.042755,15.96225,-0.000213623,-49.40543,321.4461,318.3077,10,0.2922668,-0.01388652,0.3171977,-0.02924259,0.02053382,0.3197166,0.2290805,-0.03492684,0.2775269,0.0667813,0.09339605,-0.07246679,1
2013-09-19 16:56:54.951,46,0.92,51.03954,13.79297,102,0.92,-1,24,30,1379602614,0.09361267,-0.2080994,-1.042755,15.96225,-0.000213623,-49.40543,321.4461,318.3077,10,0.2842677,0.07300044,0.3781987,-0.02495467,0.01868875,0.3235713,0.2840769,-0.01851963,0.3130588,0.07195802,0.1078411,-0.09679839,1
2013-09-19 16:56:54.973,47,0.94,51.03954,13.79297,102,0.92,-1,24,30,1379602614,0.02755737,-0.2223053,-0.9281921,16.63492,-0.941925,-48.70465,319.0541,315.9157,10,0.09087824,0.1561313,0.2717711,-0.009930233,0.02033281,0.3298774,0.1693806,0.127509,0.3351184,0.04981084,0.1040327,-0.02010167,1
2013-09-19 16:56:55.007,48,0.96,51.03954,13.79297,102,0.92,-1,24,30,1379602614,0.03884888,-0.2219849,-0.8922424,16.56766,-1.278259,-48.49442,318.4062,315.2678,10,0.04202415,0.2332636,0.2273469,-0.005772532,0.02093094,0.3315259,0.08266518,0.1515113,0.2676263,0.02024933,0.09947301,0.02804231,1
2013-09-19 16:56:55.034,49,0.98,51.03954,13.79297,102,0.92,-1,24,30,1379602614,0.128891,-0.2209625,-0.7418213,16.29858,-1.681854,-48.91489,318.5156,315.3772,10,0.2023246,0.2651363,0.1722261,0.004169714,0.03675672,0.3314672,0.1463512,0.3825136,0.1318743,0.06783676,0.1126011,0.1263084,1
2013-09-19 16:56:55.066,50,1,51.03954,13.79297,102,0.92,-1,24,30,1379602614,0.128891,-0.2209625,-0.7418213,17.03851,-2.152695,-48.28418,316.5069,313.3685,10,0.2286657,0.1957881,0.2586065,0.004169714,0.03675672,0.3314672,0.1463512,0.3825136,0.1318743,0.06783676,0.1126011,0.1263084,1
2013-09-19 16:56:55.074,51,1.02,51.03954,13.79297,102,0.92,-1,24,30,1379602614,0.1183777,-0.2422485,-0.6290283,17.30759,-2.152695,-48.70465,317.1621,314.0237,10,0.1488723,0.2250587,0.3794784,0.009496429,0.0420169,0.3371768,0.2204303,0.1911695,0.2544612,0.08925163,0.1098616,0.2010383,1
2013-09-19 16:56:55.093,52,1.04,51.03954,13.79297,102,0.92,-1,24,30,1379602614,0.09196472,-0.2565002,-0.6488037,17.30759,-2.152695,-48.70465,317.1621,314.0237,10,-0.01406282,0.2356003,0.4500308,0.02063771,0.04483261,0.3409869,0.04642152,0.3032979,0.4535008,0.06710726,0.08121295,0.3152269,1
2013-09-19 16:56:55.126,53,1.06,51.03954,13.79297,102,0.92,-1,24,30,1379602614,0.0697937,-0.2853241,-0.6375427,17.17305,-2.421768,-48.84482,317.5539,314.4155,10,-0.07982399,0.1070231,0.3920554,0.02741708,0.04636519,0.3412288,-0.02229813,0.2309816,0.4458855,0.0482884,0.07814503,0.2925277,1
2013-09-19 16:56:55.133,54,1.08,51.03954,13.79297,102,0.92,-1,24,30,1379602614,0.01237488,-0.2935486,-0.7506256,17.37485,-2.623566,-48.77475,317.3789,314.2405,10,-0.1599335,-0.09438216,0.158073,0.03861812,0.04514428,0.3388705,-0.1635735,0.01650105,0.316314,0.0272312,0.04709796,0.3046271,1
2013-09-19 16:56:55.154,55,1.1,51.03954,13.79297,102,0.92,-1,24,30,1379602614,0.04660034,-0.3123169,-0.8695068,18.2493,-2.421768,-47.72357,315.7663,312.6279,10,-0.083566,-0.1020672,0.005659484,0.04186036,0.0431603,0.3366291,-0.1681687,-0.09900076,0.1539277,-0.02835033,0.03675866,0.1923689,1
2013-09-19 16:56:55.188,56,1.12,51.03954,13.79297,102,0.92,-1,24,30,1379602614,0.05056763,-0.2914429,-0.8405762,17.84569,-2.018158,-48.14404,316.1257,312.9873,10,0.1444994,-0.08044584,-0.0643409,0.0427183,0.04148518,0.3349938,-0.09180123,-0.1066858,0.001514246,-0.03426981,0.02900443,0.1552239,1
2013-09-19 16:56:55.193,57,1.14,51.03954,13.79297,102,0.92,-1,24,30,1379602614,0.2010956,-0.3412323,-1.020706,17.84569,-2.018158,-48.14404,316.1257,312.9873,10,0.03935114,-0.2684048,-0.1115675,0.04061514,0.03945958,0.3350526,0.1362612,-0.08506152,-0.06848733,0.009863456,0.02822067,0.04805852,1
2013-09-19 16:56:55.214,58,1.16,51.03954,13.79297,102,0.92,-1,24,30,1379602614,0.0327301,-0.4104462,-0.7632141,17.64391,-2.219955,-48.35428,316.1052,312.9668,10,0.01536671,-0.06657264,-0.1998527,0.03748777,0.03031404,0.3362668,0.09038136,-0.5625655,-0.1146785,0.1724837,-0.01126702,-0.07714681,1
2013-09-19 16:56:55.247,59,1.18,51.03954,13.79297,102,0.92,-1,24,30,1379602614,0.0327301,-0.4104462,-0.7632141,17.37483,-1.81636,-48.35428,316.9875,313.8491,10,-0.1240032,-0.05589363,-0.01435817,0.03748777,0.03031404,0.3362668,0.09038136,-0.5625655,-0.1146785,0.1724837,-0.01126702,-0.07714681,1
2013-09-19 16:56:55.273,60,1.2,51.03954,13.79297,102,0.92,-1,24,30,1379602614,0.04502869,-0.3874512,-0.9425812,17.71117,-1.614563,-48.14404,316.3126,313.1742,10,0.4157874,0.3616253,-0.06010462,0.03303291,0.03580474,0.3415885,0.3025325,0.3584303,-0.00628332,0.02240821,-0.05841783,-0.04220586,1
2013-09-19 16:56:55.306,61,1.22,51.03954,13.79297,102,0.92,-1,24,30,1379602614,0.06802368,-0.4113617,-0.8609467,17.77843,-2.21994,-48.77478,315.531,312.3926,10,0.3406409,0.1979964,-0.165072,0.03220484,0.04118989,0.3468193,0.4075598,0.3570161,-0.0642534,0.006302255,-0.04754293,-0.002920256,1
2013-09-19 16:56:55.334,62,1.24,51.03954,13.79297,102,0.92,-1,24,30,1379602614,0.1885681,-0.4666595,-1.075424,17.10576,-2.892609,-48.35428,317.9008,314.7625,10,0.9453418,0.03640541,0.01397654,0.0225792,0.04788048,0.3650689,0.6023186,-0.2133558,-0.1977917,0.0007631619,-0.02148055,-0.1997076,1
2013-09-19 16:56:55.366,63,1.26,51.03954,13.79297,102,0.92,-1,24,30,1379602614,0.2885284,-0.8222198,-1.028458,17.10576,-2.892609,-48.35428,317.9008,314.7625,10,0.8982754,0.2367579,0.3081091,0.02086787,0.04796276,0.3767556,0.9371338,0.03180813,0.009823302,0.07101887,-0.03684904,-0.1493312,1
2013-09-19 16:56:55.374,64,1.28,51.03954,13.79297,102,0.92,-1,24,30,1379602614,-0.431366,-0.4012451,-1.134552,17.64389,-3.834335,-48.07397,317.6789,314.5405,10,-0.1208335,-1.017089,1.519179,0.03202203,0.0452655,0.3986478,0.4026119,-0.3543808,0.8401056,0.2468266,-0.4340473,-0.1078149,1
2013-09-19 16:56:55.394,65,1.3,51.03954,13.79297,102,0.92,-1,24,30,1379602614,0.3102722,-0.5159149,-1.045731,17.37483,-4.776062,-48.63461,318.4369,315.2985,10,0.0974874,-0.882562,0.1869795,0.06565306,0.003510399,0.3975197,-0.1019511,-1.268759,0.4326548,-0.4346026,-0.01411248,-0.2125337,1
2013-09-19 16:56:55.427,66,1.32,51.03954,13.79297,102,0.92,-1,24,30,1379602614,0.3102722,-0.5159149,-1.045731,16.97124,-5.045135,-48.77475,317.6106,314.4722,10,-0.4060183,-0.4675446,0.4917442,0.06565306,0.003510399,0.3975197,-0.1019511,-1.268759,0.4326548,-0.4346026,-0.01411248,-0.2125337,1
2013-09-19 16:56:55.433,67,1.34,51.03954,13.79297,102,0.92,-1,24,30,1379602614,-0.3374176,-0.6476898,-1.311127,16.97124,-5.045135,-48.77475,317.6106,314.4722,10,-0.7466092,-0.7951869,0.2507145,0.07461996,-0.0216127,0.3957928,-0.4143077,-0.4721594,0.4875598,0.003933824,-0.2625009,0.01064099,1
2013-09-19 16:56:55.453,68,1.36,51.03954,13.79297,102,0.92,-1,24,30,1379602614,-0.3553772,-0.5085297,-1.380615,16.70218,-5.314178,-49.19519,315.6089,312.4705,10,-1.032041,-0.3529812,-0.3246617,0.08069458,-0.04332644,0.3756396,-0.7596177,-0.567395,0.06292919,-0.1565456,-0.3229823,-0.3671239,1
2013-09-19 16:56:55.489,69,1.38,51.03954,13.79297,102,0.92,-1,24,30,1379602614,-0.3553772,-0.5085297,-1.380615,16.43312,-5.448715,-49.33536,312.9886,309.8502,10,-1.252977,0.08499585,-0.6868364,0.07727008,-0.04795315,0.3627564,-1.040331,-0.357596,-0.328846,-0.3890073,-0.2138272,-0.4345759,1
2013-09-19 16:56:55.514,70,1.4,51.03954,13.79297,102,0.92,-1,24,30,1379602614,0.1009979,-0.329361,-1.542007,15.69321,-3.767075,-48.98499,311.5165,308.3781,10,-0.1200122,0.4919029,-0.5170655,0.04240274,-0.02561202,0.314108,-0.9387013,0.5354341,-0.785269,-0.07754197,-0.05181061,-0.5729975,1
2013-09-19 16:56:55.551,71,1.42,51.03954,13.79297,102,0.92,-1,24,30,1379602614,0.08435059,-0.3042297,-1.162186,15.69321,-3.767075,-48.98499,311.5165,308.3781,10,0.5476437,0.2974956,-0.2248691,0.03331206,-0.01585144,0.3084854,-0.1283014,0.4872881,-0.5212498,0.1161005,-0.02574511,-0.5893326,1
2013-09-19 16:56:55.574,72,1.44,51.03954,13.79297,102,0.92,-1,24,30,1379602614,-0.2463074,-0.2710114,-0.795517,15.15508,-2.959885,-48.70468,314.5341,311.3957,10,0.3444532,-0.3849597,-0.5336496,0.02113739,-0.01799641,0.3456644,0.6562173,-0.4747604,-0.2959865,-0.2147737,0.06407212,0.1416259,1
2013-09-19 16:56:55.609,73,1.46,51.03954,13.79297,102,0.92,-1,24,30,1379602614,-0.1611786,-0.2398529,-0.9280548,15.15508,-2.556305,-48.70468,316.1053,312.9669,10,0.1011855,-0.08596604,-0.721485,0.02113739,-0.01799641,0.3456644,0.6562173,-0.4747604,-0.2959865,-0.2147737,0.06407212,0.1416259,1
2013-09-19 16:56:55.634,74,1.48,51.03954,13.79297,102,0.92,-1,24,30,1379602614,0.08001709,-0.2412567,-0.9376678,14.81876,-2.354507,-49.33539,318.0544,314.916,10,0.2852693,0.53921,-0.608164,-0.01785524,-0.005506417,0.355112,0.056678,0.4851913,-0.7207671,0.002950307,0.114831,-0.04810918,1
2013-09-19 16:56:55.665,75,1.5,51.03954,13.79297,102,0.92,-1,24,30,1379602614,0.08001709,-0.2412567,-0.9376678,14.21336,-2.421768,-49.68579,319.8796,316.7412,10,0.5132543,0.4812516,-0.5232155,-0.02738091,0.005149145,0.3579026,0.2769803,0.5345954,-0.6123482,0.04447831,0.1123344,-0.04221484,1
2013-09-19 16:56:55.673,76,1.52,51.03954,13.79297,102,0.92,-1,24,30,1379602614,0.06425476,-0.2365417,-0.4998474,14.61694,-2.690826,-49.82593,319.6372,316.4988,10,0.6099323,0.2313142,-0.4471357,-0.04311949,0.02307705,0.3720594,0.6424161,0.3300601,-0.4840221,0.05452306,0.1289613,0.1807833,1
2013-09-19 16:56:55.694,77,1.54,51.03954,13.79297,102,0.92,-1,24,30,1379602614,0.07568359,-0.2686005,-0.4444733,14.61694,-2.690826,-49.82593,319.6372,316.4988,10,0.5274175,0.2000836,-0.4285716,-0.05023679,0.02924183,0.3805334,0.6016434,0.2266996,-0.4513198,0.04528728,0.1387955,0.4023129,1
2013-09-19 16:56:55.729,78,1.56,51.03954,13.79297,102,0.92,-1,24,30,1379602614,0.07568359,-0.2686005,-0.4444733,14.41515,-2.892624,-49.75583,322.5339,319.3955,10,0.4292842,0.1834058,-0.4525121,-0.05697298,0.03462082,0.3878508,0.5191286,0.195469,-0.4327557,0.03221184,0.141658,0.4253219,1
2013-09-19 16:56:55.754,79,1.58,51.03954,13.79297,102,0.92,-1,24,30,1379602614,0.08018494,-0.2935791,-0.5388489,14.95326,-3.430756,-50.59677,325.3488,322.2104,10,0.09236482,-0.04176849,-0.2884574,-0.08307242,0.05147495,0.4033409,0.1311484,0.05480008,-0.3421618,0.05780963,0.1103583,0.4370913,1
2013-09-19 16:56:55.789,80,1.6,51.03954,13.79297,102,0.92,-1,24,30,1379602614,0.06874084,-0.3156586,-0.5968933,14.95328,-3.565277,-51.01721,326.2309,323.0925,10,-0.001182177,-0.1996718,-0.260875,-0.08773641,0.0532523,0.4044692,0.08407602,-0.04638299,-0.2926414,0.03125263,0.09995171,0.3791594,1
2013-09-19 16:56:55.814,81,1.62,51.03954,13.79297,102,0.92,-1,24,30,1379602614,-0.006896973,-0.3679352,-0.8085938,14.81874,-3.565277,-51.99829,327.4499,324.3115,10,-0.3571067,-0.1035355,-0.06619367,-0.09731854,0.04711914,0.4002464,-0.2676657,-0.2776066,-0.1202691,0.004442018,0.06351916,0.25704,1
2013-09-19 16:56:55.851,82,1.64,51.03954,13.79297,102,0.92,-1,24,30,1379602614,-0.03591919,-0.4259949,-0.9276428,15.02054,-3.094421,-52.34869,327.5692,324.4308,10,-0.3137507,0.08384936,0.01656033,-0.09837776,0.04515828,0.3954941,-0.3653954,-0.1081499,-0.07037769,-0.01796128,0.03985098,0.2025968,1
2013-09-19 16:56:55.874,83,1.66,51.03954,13.79297,102,0.92,-1,24,30,1379602614,-0.03155518,-0.5889435,-1.070679,14.6842,-2.892624,-52.55893,327.8441,324.7057,10,-0.2322319,0.2002231,0.2389511,-0.0976036,0.04698645,0.3816097,-0.3117726,0.1186401,0.09798366,-0.06988139,-0.07816193,-0.03021804,1
2013-09-19 16:56:55.915,84,1.68,51.03963,13.79291,108,0.784014,-1,24,10,1379602615,-0.03155518,-0.5889435,-1.070679,14.6842,-2.623566,-52.13846,327.1972,324.0588,10,-0.1346822,0.1937618,0.3306115,-0.09348381,0.04524968,0.3823844,-0.2405002,0.1955937,0.2347739,-0.04904739,-0.1117448,-0.06078197,1
2013-09-19 16:56:55.933,85,1.7,51.03963,13.79291,108,0.784014,-1,24,10,1379602615,-0.06887817,-0.5967407,-1.147629,14.54967,-1.816376,-51.71802,327.3165,324.1781,10,0.3950491,-0.07663193,0.2414299,-0.07483903,0.04119176,0.3855115,0.3385028,-0.1090253,0.2767017,-0.1034501,-0.243321,-0.2322609,1
2013-09-19 16:56:55.971,86,1.72,51.03963,13.79291,108,0.784014,-1,24,10,1379602615,-0.09013367,-0.5449829,-1.164688,14.28059,-1.950897,-51.01721,327.2902,324.1518,10,0.3772482,-0.04402498,0.1662097,-0.07135072,0.03864139,0.3908201,0.3867809,-0.08126128,0.2372529,-0.1061839,-0.1901744,-0.2132545,1
2013-09-19 16:56:55.994,87,1.74,51.03963,13.79291,108,0.784014,-1,24,10,1379602615,-0.03945923,-0.594986,-1.071762,14.95325,-1.950897,-50.03613,325.9466,322.8082,10,0.3808842,0.6875355,0.0982773,-0.06565817,0.03927764,0.4062299,0.3865108,0.3353197,0.08770283,-0.1541291,-0.1408466,-0.3477622,1
2013-09-19 16:56:56.029,88,1.76,51.03963,13.79291,108,0.784014,-1,24,10,1379602615,-0.006393433,-0.5950623,-0.977478,15.69316,-2.421753,-49.54556,325.7493,322.6109,10,0.1616062,0.4496796,0.03194169,-0.06458984,0.04694676,0.4116852,0.3726161,0.6829062,0.0941003,-0.08246768,-0.1948317,-0.156324,1
2013-09-19 16:56:56.054,89,1.78,51.03963,13.79291,108,0.784014,-1,24,10,1379602615,0.09498596,-0.3333588,-1.536316,16.09677,-3.228943,-48.42432,323.8005,320.6621,10,-0.4231214,-0.5814498,-0.1983152,-0.06587721,0.05144611,0.4129324,-0.2512482,-0.486643,-0.1454947,-0.05505101,-0.07250368,-0.2312294,1
2013-09-19 16:56:56.089,90,1.8,51.03963,13.79291,108,0.784014,-1,24,10,1379602615,0.3072205,-0.2640533,-1.703156,16.76942,-3.901596,-48.28418,322.2315,319.0931,10,-0.1907747,-0.3535197,-0.0798722,-0.06853627,0.04457193,0.4074904,-0.4313895,-0.5860791,-0.2024922,-0.03057855,0.01653051,-0.3851312,1
2013-09-19 16:56:56.114,91,1.82,51.03963,13.79291,108,0.784014,-1,24,10,1379602615,0.1355286,-0.2753296,-0.8157501,16.29857,-5.045105,-48.91489,319.5806,316.4422,10,0.7233148,-0.2513571,0.8122032,-0.05130918,0.03418314,0.426853,0.8197472,0.0003114874,0.7607168,0.2061185,0.1726905,-0.1135435,1
2013-09-19 16:56:56.149,92,1.84,51.03963,13.79291,108,0.784014,-1,24,10,1379602615,0.1355286,-0.2753296,-0.8157501,15.35684,-5.179642,-49.61566,321.984,318.8456,10,0.5980525,-0.4872293,0.8193353,-0.05130918,0.03418314,0.426853,0.8197472,0.0003114874,0.7607168,0.2061185,0.1726905,-0.1135435,1
2013-09-19 16:56:56.174,93,1.86,51.03963,13.79291,108,0.784014,-1,24,10,1379602615,0.05601501,-0.3064575,-0.912796,14.61691,-5.381439,-51.22745,323.7612,320.6228,10,0.2867745,-0.7273782,0.591434,-0.005900341,-0.01164909,0.4598494,0.3838712,-0.7225668,0.6282176,0.08784657,0.1321219,0.0648055,1
2013-09-19 16:56:56.209,94,1.88,51.03963,13.79291,108,0.784014,-1,24,10,1379602615,0.05601501,-0.3064575,-0.912796,13.80972,-5.650482,-50.80701,322.951,319.8126,10,0.2487448,-0.6717818,0.5762199,0.003432354,-0.0259992,0.4639602,0.2785067,-0.7320074,0.5872571,0.1097044,0.1457659,0.05803237,1
2013-09-19 16:56:56.213,95,1.9,51.03963,13.79291,108,0.784014,-1,24,10,1379602615,0.05432129,-0.3095703,-0.9407959,13.13707,-6.323151,-51.08728,322.1457,319.0073,10,0.2487448,-0.6717818,0.5762199,0.003432354,-0.0259992,0.4639602,0.2785067,-0.7320074,0.5872571,0.1097044,0.1457659,0.05803237,1
2013-09-19 16:56:56.234,96,1.92,51.03963,13.79291,108,0.784014,-1,24,10,1379602615,0.0629425,-0.2885437,-0.8924561,13.13707,-6.323151,-51.08728,322.1457,319.0073,10,0.3456892,-0.5508869,0.5850922,0.03007575,-0.06435055,0.4728187,0.2541015,-0.5673394,0.5498709,0.1115723,0.1458272,-0.0523504,1
2013-09-19 16:56:56.267,97,1.94,51.03963,13.79291,108,0.784014,-1,24,10,1379602615,0.05053711,-0.2706146,-0.802063,12.26262,-6.659485,-51.71802,322.1357,318.9973,10,0.4422579,-0.5582609,0.6489825,0.0391828,-0.07620504,0.4765446,0.3374215,-0.5555159,0.5809155,0.1268227,0.1631029,-0.0296735,1
2013-09-19 16:56:56.273,98,1.96,51.03963,13.79291,108,0.784014,-1,24,10,1379602615,-0.0319519,-0.274231,-0.6820984,11.72449,-7.601212,-52.27866,321.2525,318.1141,10,0.413239,-0.3307044,0.7089809,0.06073362,-0.1013513,0.4871912,0.4948716,-0.5041337,0.7055226,0.1399431,0.1975311,0.0770537,1
2013-09-19 16:56:56.294,99,1.98,51.03963,13.79291,108,0.784014,-1,24,10,1379602615,-0.07928467,-0.2727661,-0.6406097,11.38817,-8.072067,-51.92825,319.4561,316.3177,10,0.2544661,0.1219427,0.6818009,0.08405105,-0.120157,0.4957451,0.3077292,-0.06826314,0.6901887,0.04402112,0.208048,0.2175564,1
2013-09-19 16:56:56.328,100,2,51.03963,13.79291,108,0.784014,-1,24,10,1379602615,-0.109375,-0.301651,-0.6198578,11.38817,-8.072067,-51.92825,319.4561,316.3177,10,0.2544661,0.1219427,0.6818009,0.08405105,-0.120157,0.4957451,0.3077292,-0.06826314,0.6901887,0.04402112,0.208048,0.2175564,1
2013-09-19 16:56:56.333,101,2.02,51.03963,13.79291,108,0.784014,-1,24,10,1379602615,-0.109375,-0.301651,-0.6198578,10.64824,-8.811996,-52.83929,319.1154,315.977,10,0.2412403,0.1387986,0.6465538,0.09528964,-0.1245472,0.4981895,0.2461985,0.1173137,0.6776242,0.02984105,0.2050698,0.2310349,1
2013-09-19 16:56:56.354,102,2.04,51.03963,13.79291,108,0.784014,-1,24,10,1379602615,-0.1585693,-0.3335724,-0.5560608,10.44646,-9.551926,-52.06842,317.5881,314.4497,10,0.2166207,-0.07897391,0.5339957,0.1261166,-0.1360314,0.5050981,0.2656237,-0.01411996,0.5807797,0.006419043,0.1666936,0.3012467,1
2013-09-19 16:56:56.391,103,2.06,51.03963,13.79291,108,0.784014,-1,24,10,1379602615,-0.1910858,-0.3497925,-0.5575867,10.3792,-10.0228,-51.43771,316.4554,313.317,10,0.1377272,-0.08523154,0.4196769,0.1351692,-0.1413331,0.5071259,0.2083532,-0.08360288,0.529819,-6.487477e-05,0.1644236,0.3100386,1
2013-09-19 16:56:56.414,104,2.08,51.03963,13.79291,108,0.784014,-1,24,10,1379602615,-0.09370422,-0.37323,-0.8257599,10.3792,-10.15732,-51.43768,315.5358,312.3974,10,-0.313616,0.1787048,-0.008098939,0.1498711,-0.150019,0.5054976,-0.2036732,0.06916593,0.1163679,-0.05507191,0.1264395,0.2622929,1
2013-09-19 16:56:56.447,105,2.1,51.03963,13.79291,108,0.784014,-1,24,10,1379602615,-0.09370422,-0.37323,-0.8257599,10.11014,-10.5609,-51.57782,315.0153,311.8769,10,-0.3720455,0.2418837,-0.08031827,0.1495559,-0.147947,0.5015236,-0.3218834,0.1740758,-0.0122756,-0.01857243,0.1132236,0.170678,1
2013-09-19 16:56:56.453,106,2.12,51.03963,13.79291,108,0.784014,-1,24,10,1379602615,-0.07092285,-0.3829193,-0.8696747,10.44646,-10.7627,-50.80698,313.7285,310.5901,10,-0.2845388,0.2874198,-0.1085614,0.1451686,-0.139143,0.4918015,-0.3444759,0.2756308,-0.1265508,0.02855264,0.0989847,0.04720435,1
2013-09-19 16:56:56.474,107,2.14,51.03963,13.79291,108,0.784014,-1,24,10,1379602615,-0.07765198,-0.4154205,-0.8484192,10.78279,-10.5609,-50.73691,313.1303,309.9919,10,-0.2193182,0.1503951,-0.1010494,0.1390195,-0.1262153,0.4807544,-0.2476178,0.2342784,-0.09386211,0.03930005,0.06578068,0.02250723,1
2013-09-19 16:56:56.506,108,2.16,51.03963,13.79291,108,0.784014,-1,24,10,1379602615,-0.09324646,-0.4420319,-0.8119659,10.78279,-10.5609,-50.73691,313.1303,309.9919,10,-0.2573149,0.02845295,-0.1020148,0.1390195,-0.1262153,0.4807544,-0.2476178,0.2342784,-0.09386211,0.03930005,0.06578068,0.02250723,1
2013-09-19 16:56:56.513,109,2.18,51.03963,13.79291,108,0.784014,-1,24,10,1379602615,-0.09324646,-0.4420319,-0.8119659,10.91731,-10.5609,-51.15735,312.9022,309.7638,10,-0.4327269,-0.001327852,-0.1448536,0.1370126,-0.1228481,0.4777367,-0.2277644,0.1457637,-0.105229,0.03116757,0.04434988,0.03292608,1
2013-09-19 16:56:56.534,110,2.2,51.03963,13.79291,108,0.784014,-1,24,10,1379602615,-0.1160126,-0.5259094,-1.006058,11.11913,-10.22458,-50.94714,312.9153,309.7769,10,-0.7524221,0.1586623,-0.2965688,0.1300548,-0.12202,0.4654644,-0.6235946,0.04747185,-0.2394771,-0.04230896,-0.04553163,0.008444224,1
2013-09-19 16:56:56.567,111,2.22,51.03963,13.79291,108,0.784014,-1,24,10,1379602615,-0.06820679,-0.5517731,-1.214417,11.18639,-9.753723,-50.17627,312.624,309.4856,10,-0.8255392,0.1222471,-0.2283791,0.1243184,-0.1178115,0.4561398,-0.7608499,0.1540153,-0.3007415,-0.03339409,-0.06874566,-0.04941201,1
2013-09-19 16:56:56.573,112,2.24,51.03963,13.79291,108,0.784014,-1,24,10,1379602615,-0.01811218,-0.6060791,-1.412949,11.18639,-9.753723,-50.17627,312.624,309.4856,10,-0.6382369,-0.005824599,-0.1241875,0.1128561,-0.1085516,0.4338384,-0.8339669,0.1176001,-0.2325518,0.03009512,-0.1314164,-0.3123982,1
2013-09-19 16:56:56.594,113,2.26,51.03963,13.79291,108,0.784014,-1,24,10,1379602615,-0.08700562,-0.5935974,-1.260941,11.58997,-9.215607,-50.03613,311.614,308.4756,10,-0.314808,-0.1314203,0.01893082,0.109166,-0.1064885,0.4241535,-0.6466647,-0.01047156,-0.1283601,0.05414435,-0.1581222,-0.4291939,1
2013-09-19 16:56:56.626,114,2.28,51.03963,13.79291,108,0.784014,-1,24,10,1379602615,-0.08700562,-0.5935974,-1.260941,11.32091,-8.812012,-50.87704,312.0053,308.8669,10,-0.2566283,-0.3310163,0.1329354,0.1080479,-0.1073513,0.4182799,-0.3232358,-0.1360673,0.01475816,0.07979596,-0.1998899,-0.5044199,1
2013-09-19 16:56:56.633,115,2.3,51.03963,13.79291,108,0.784014,-1,24,10,1379602615,-0.4099121,-0.4478455,-1.710114,10.9173,-8.273895,-50.45657,311.6619,308.5235,10,-0.7535071,-0.6838931,-0.3656171,0.1095419,-0.1188829,0.4089314,-0.4936359,-0.6179489,0.007036892,-0.1236896,-0.1653897,-0.2979144,1
2013-09-19 16:56:56.654,116,2.32,51.03963,13.79291,108,0.784014,-1,24,10,1379602615,-0.1122894,-0.3683929,-1.648453,10.9173,-8.273895,-50.45657,311.6619,308.5235,10,-0.450985,0.1664225,-0.7338564,0.09430077,-0.1297523,0.3898398,-0.8109267,-0.4028609,-0.6954131,-0.3951815,-0.113017,-0.6597097,1
2013-09-19 16:56:56.688,117,2.34,51.03963,13.79291,108,0.784014,-1,24,10,1379602615,-0.1122894,-0.3683929,-1.648453,10.64824,-7.601227,-50.03613,311.4168,308.2784,10,0.1497631,0.6341485,-0.4508511,0.09430077,-0.1297523,0.3898398,-0.8109267,-0.4028609,-0.6954131,-0.3951815,-0.113017,-0.6597097,1
2013-09-19 16:56:56.714,118,2.36,51.03963,13.79291,108,0.784014,-1,24,10,1379602615,-0.1930695,-0.3136749,-0.8270721,10.58098,-6.323181,-49.96606,311.6556,308.5172,10,0.6037751,-0.2201033,-0.1248445,0.06947848,-0.1012701,0.3983458,0.6967975,0.1774569,-0.1023159,0.01305771,0.04174859,-0.2744094,1
2013-09-19 16:56:56.749,119,2.38,51.03963,13.79291,108,0.784014,-1,24,10,1379602615,-0.3141785,-0.3051453,-0.7272491,10.58098,-6.323181,-49.96606,311.6556,308.5172,10,0.285937,-0.4808561,-0.3044204,0.06889236,-0.1023933,0.4074989,0.5953476,-0.2247502,-0.129017,-0.09922479,0.08263931,0.08623405,1
2013-09-19 16:56:56.773,120,2.4,51.03965,13.79303,127,0,-1,12,10,1379602616,-0.1182404,-0.3056335,-1.035019,10.1774,-5.516006,-50.24637,316.9458,313.8074,10,-0.3093424,0.07588278,-0.6146871,0.04948121,-0.1114608,0.4119934,-0.293866,-0.2039086,-0.6520972,-0.1731321,0.09643592,0.09635302,1
2013-09-19 16:56:56.814,121,2.42,51.03965,13.79303,127,0,-1,12,10,1379602616,-0.03953552,-0.2890625,-0.8935547,10.24466,-4.910614,-50.1763,317.1693,314.0309,10,-0.1118458,0.1708029,-0.5731639,0.03938211,-0.107526,0.4083931,-0.3177707,0.07123538,-0.6188594,-0.06892639,0.108744,-0.06474361,1
2013-09-19 16:56:56.834,122,2.44,51.03965,13.79303,127,0,-1,12,10,1379602616,0.02838135,-0.2879791,-0.4395447,10.04285,-4.843353,-50.80701,317.911,314.7726,10,0.3845578,0.2525774,-0.4075174,0.01044704,-0.08248394,0.4161007,0.3538851,0.35427,-0.4101028,0.07423107,0.1171029,0.3275931,1
2013-09-19 16:56:56.867,123,2.46,51.03965,13.79303,127,0,-1,12,10,1379602616,0.02838135,-0.2879791,-0.4395447,10.04285,-4.843353,-50.94714,319.3623,316.2239,10,0.3849472,0.08608881,-0.4343685,0.01044704,-0.08248394,0.4161007,0.3538851,0.35427,-0.4101028,0.07423107,0.1171029,0.3275931,1
2013-09-19 16:56:56.874,124,2.48,51.03965,13.79303,127,0,-1,12,10,1379602616,0.06942749,-0.2919617,-0.3663177,10.51372,-4.237946,-50.4566,320.5308,317.3924,10,0.2539811,0.0280857,-0.3570489,-0.007541877,-0.06914787,0.4324594,0.31977,-0.01959967,-0.4072356,0.1167175,0.1228862,0.5169435,1
2013-09-19 16:56:56.894,125,2.5,51.03965,13.79303,127,0,-1,12,10,1379602616,0.1145325,-0.3128052,-0.3344269,11.38817,-4.439743,-49.8259,320.0486,316.9102,10,0.09575422,0.1449577,-0.2737461,-0.01295863,-0.0667252,0.436594,0.2455499,0.02343597,-0.3612199,0.1490596,0.1263466,0.5566006,1
2013-09-19 16:56:56.926,126,2.52,51.03965,13.79303,127,0,-1,12,10,1379602616,0.1121063,-0.3348389,-0.4125671,11.38817,-4.439743,-49.8259,320.0486,316.9102,10,-0.08437747,0.2395066,-0.2135016,-0.0174792,-0.06353698,0.4387987,0.087323,0.140308,-0.277917,0.1720114,0.1120471,0.5690092,1
2013-09-19 16:56:56.933,127,2.54,51.03965,13.79303,127,0,-1,12,10,1379602616,0.1155853,-0.3605804,-0.6719971,11.18637,-4.910614,-49.7558,321.0401,317.9017,10,-0.1314371,0.160831,-0.1677256,-0.02463011,-0.05434251,0.4366176,-0.1652943,0.2275532,-0.2232705,0.1701156,0.0665383,0.2869906,1
2013-09-19 16:56:56.953,128,2.56,51.03965,13.79303,127,0,-1,12,10,1379602616,0.08078003,-0.361618,-0.7856293,11.32091,-5.179672,-49.47546,321.0423,317.9039,10,-0.1809679,0.1484257,-0.1271678,-0.02766745,-0.05054792,0.4347009,-0.1398683,0.1561813,-0.1718965,0.1614126,0.06055873,0.2338405,1
2013-09-19 16:56:56.986,129,2.58,51.03965,13.79303,127,0,-1,12,10,1379602616,0.105835,-0.3549347,-0.9115753,11.52271,-4.977875,-49.26526,321.4244,318.286,10,-0.2485968,0.1493583,-0.1267209,-0.030111,-0.04753854,0.4324437,-0.1893991,0.143776,-0.1313387,0.1456546,0.05907495,0.1863986,1
2013-09-19 16:56:56.993,130,2.6,51.03965,13.79303,127,0,-1,12,10,1379602616,0.06430054,-0.3808899,-1.075409,12.46443,-4.708832,-48.98492,320.4522,317.3138,10,-0.2482386,0.2772614,0.09590789,-0.03367868,-0.04159604,0.425343,-0.2997969,0.2085984,-0.02910978,0.1437138,0.05769853,-0.001465972,1
2013-09-19 16:56:57.014,131,2.62,51.03965,13.79303,127,0,-1,12,10,1379602616,0.09658813,-0.40625,-1.124847,12.46443,-4.708832,-48.98492,320.4522,317.3138,10,0.04108938,0.3350475,0.4597607,-0.03303973,-0.02913762,0.4208417,-0.1137099,0.3431862,0.1858884,0.09089201,0.02763896,-0.163051,1
2013-09-19 16:56:57.046,132,2.64,51.03965,13.79303,127,0,-1,12,10,1379602616,0.09658813,-0.40625,-1.124847,12.26263,-4.372498,-48.91483,321.7657,318.6273,10,0.2040575,0.3786525,0.6556934,-0.03303973,-0.02913762,0.4208417,-0.1137099,0.3431862,0.1858884,0.09089201,0.02763896,-0.163051,1
2013-09-19 16:56:57.053,133,2.66,51.03965,13.79303,127,0,-1,12,10,1379602616,-0.1174774,-0.5265198,-1.133469,12.59897,-4.439758,-48.70459,321.3988,318.2604,10,0.4017235,0.201306,0.8435624,-0.006667337,-0.02590064,0.4258243,0.3099035,0.2771073,0.8078327,0.003336626,-0.06762597,-0.1971814,1
2013-09-19 16:56:57.074,134,2.68,51.03965,13.79303,127,0,-1,12,10,1379602616,-0.2127075,-0.5584869,-1.141052,12.73351,-4.708832,-47.58334,320.5226,317.3842,10,0.531616,0.0793614,0.9048292,0.006198426,-0.02821568,0.4305904,0.3933017,0.1966791,0.8393813,-0.05366319,-0.08280627,-0.1897105,1
2013-09-19 16:56:57.108,135,2.7,51.03965,13.79303,127,0,-1,12,10,1379602616,-0.2127075,-0.5584869,-1.141052,12.73351,-4.708832,-47.58334,320.5226,317.3842,10,0.6791519,-0.006528739,0.9141884,0.01988381,-0.03234198,0.4368146,0.5231943,0.07473456,0.9006482,-0.08817733,-0.1034645,-0.2278386,1
2013-09-19 16:56:57.113,136,2.72,51.03965,13.79303,127,0,-1,12,10,1379602616,-0.3374329,-0.5808411,-1.114517,13.33888,-5.045151,-46.95264,318.8192,315.6808,10,0.6341383,-0.007347395,0.8605755,0.01988381,-0.03234198,0.4368146,0.5231943,0.07473456,0.9006482,-0.08817733,-0.1034645,-0.2278386,1
2013-09-19 16:56:57.133,137,2.74,51.03965,13.79303,127,0,-1,12,10,1379602616,-0.3144073,-0.6563568,-1.123398,12.39716,-6.121399,-47.23294,318.7428,315.6044,10,0.4984617,0.40975,0.7288254,0.06093777,-0.04929551,0.4610628,0.5451584,0.1268918,0.7762722,-0.2933027,-0.1359409,-0.220025,1
2013-09-19 16:56:57.168,138,2.76,51.03965,13.79303,127,0,-1,12,10,1379602616,-0.3407288,-0.7926483,-0.933197,13.40614,-6.99585,-46.60226,315.9596,312.8212,10,0.3383525,0.6468176,0.7354005,0.07259899,-0.05044423,0.467614,0.4900401,0.4051232,0.7246444,-0.3211707,-0.1620963,-0.238906,1
2013-09-19 16:56:57.173,139,2.78,51.03965,13.79303,127,0,-1,12,10,1379602616,-0.3929749,-0.7289276,-1.035873,13.80974,-7.399445,-46.04163,314.8791,311.7407,10,-0.3240172,0.3931529,0.3093019,0.0842616,-0.04771715,0.4726501,0.3299309,0.6421909,0.7312195,-0.2845263,-0.2969651,-0.06693207,1
2013-09-19 16:56:57.194,140,2.8,51.03965,13.79303,127,0,-1,12,10,1379602616,-0.2570496,-0.5819397,-1.395676,13.80974,-7.399445,-46.04163,314.8791,311.7407,10,-0.7320937,0.4657248,-0.125396,0.1020413,-0.03685407,0.4631899,-0.7123805,0.3128895,0.03934016,-0.306621,-0.197483,-0.3080936,1
2013-09-19 16:56:57.255,141,2.82,51.03965,13.79303,127,0,-1,12,10,1379602616,0.1107483,-0.4385071,-1.554855,14.61693,-7.130386,-46.04163,313.4816,310.3432,10,-0.2943232,0.698056,-0.01796196,0.1020413,-0.03685407,0.4631899,-0.7123805,0.3128895,0.03934016,-0.306621,-0.197483,-0.3080936,1
2013-09-19 16:56:57.292,142,2.84,51.03965,13.79303,127,0,-1,12,10,1379602616,0.2720032,-0.3531189,-1.261459,15.22234,-6.390472,-45.69125,314.3256,311.1872,10,0.04901841,1.038879,0.3268412,0.09895224,-0.02166844,0.4460111,-0.3027447,0.6934294,-0.02214289,-0.08438042,-0.07740349,-0.6936026,1
2013-09-19 16:56:57.315,143,2.86,51.03965,13.79303,127,0,-1,12,10,1379602616,0.08599854,-0.3092651,-0.9768219,15.76047,-5.986877,-45.13062,314.9691,311.8307,10,-0.4089305,-0.1269398,0.370344,0.1524085,-0.007591416,0.4595657,-0.1126532,-0.2208487,0.5378464,0.03875561,0.07130549,0.09615531,1
2013-09-19 16:56:57.349,144,2.88,51.03965,13.79303,127,0,-1,12,10,1379602616,0.08599854,-0.3092651,-0.9768219,15.22234,-5.717804,-45.13062,315.5836,312.4452,10,-0.6586687,0.1977179,0.2160963,0.1588972,-0.01282291,0.4552434,-0.4173518,-0.1315664,0.3661631,0.07285696,0.1061391,0.0685056,1
2013-09-19 16:56:57.374,145,2.9,51.03965,13.79303,127,0,-1,12,10,1379602616,0.1553802,-0.2465515,-1.045197,15.08781,-5.986877,-45.27075,313.9704,310.832,10,-0.1412738,0.2607261,0.37363,0.1730606,-0.01008704,0.4242081,-0.357718,0.262362,0.2572417,0.1530679,0.1489192,-0.1793949,1
2013-09-19 16:56:57.408,146,2.92,51.03965,13.79303,127,0,-1,12,10,1379602616,0.1310425,-0.2148285,-0.914566,14.88602,-5.516022,-44.92035,313.7083,310.5699,10,0.01268437,0.1572317,0.4918006,0.1730606,-0.01008704,0.4242081,-0.357718,0.262362,0.2572417,0.1530679,0.1489192,-0.1793949,1
2013-09-19 16:56:57.413,147,2.94,51.03965,13.79303,127,0,-1,12,10,1379602616,0.08363342,-0.2109528,-0.7785034,15.02055,-5.650543,-44.49988,312.4034,309.265,10,0.01268437,0.1572317,0.4918006,0.1779812,-0.008355692,0.4211422,-0.149695,0.2560996,0.3694493,0.1630058,0.1622516,-0.1326058,1
2013-09-19 16:56:57.434,148,2.96,51.03965,13.79303,127,0,-1,12,10,1379602616,0.03240967,-0.2071991,-0.6502075,14.95328,-5.448761,-45.27075,312.9077,309.7693,10,0.3286583,-0.1661767,0.6636808,0.2026324,-0.01600957,0.4248574,0.2541998,-0.1268478,0.6150654,0.09821908,0.2012381,0.1324773,1
2013-09-19 16:56:57.467,149,2.98,51.03965,13.79303,127,0,-1,12,10,1379602616,-0.03340149,-0.2066193,-0.5289612,14.95328,-5.448761,-45.27075,312.9077,309.7693,10,0.3528992,-0.1132019,0.6974624,0.2125561,-0.02237717,0.4288168,0.3201831,-0.1708135,0.6594829,0.07493009,0.2046897,0.1938681,1
2013-09-19 16:56:57.473,150,3,51.03965,13.79303,127,0,-1,12,10,1379602616,-0.06248474,-0.2384796,-0.5168762,15.15508,-5.650543,-45.20068,311.9519,308.8135,10,0.3101496,-0.01123508,0.6553853,0.2340139,-0.03437002,0.437688,0.3295823,-0.06353331,0.6976308,-0.002277521,0.2172273,0.3762379,1
2013-09-19 16:56:57.494,151,3.02,51.03965,13.79303,127,0,-1,12,10,1379602616,-0.05004883,-0.2699432,-0.546402,15.15508,-6.054138,-45.62115,311.3435,308.2051,10,0.2343462,0.02802631,0.6036238,0.2444303,-0.03922724,0.4415956,0.3016745,-0.01587177,0.6511874,-0.01790488,0.2037803,0.3827608,1
2013-09-19 16:56:57.528,152,3.04,51.03965,13.79303,127,0,-1,12,10,1379602616,-0.06045532,-0.292038,-0.6121521,15.49139,-7.063126,-45.69122,309.4208,306.2824,10,0.1637559,-0.11586,0.5372286,0.2540216,-0.04312143,0.4447283,0.2258711,0.02338962,0.5994259,-0.0235699,0.191733,0.3850122,1
2013-09-19 16:56:57.533,153,3.06,51.03965,13.79303,127,0,-1,12,10,1379602616,-0.06045532,-0.292038,-0.6121521,15.49139,-7.063126,-45.69122,309.4208,306.2824,10,0.1637559,-0.11586,0.5372286,0.2631209,-0.04713111,0.4470294,0.174454,-0.02982298,0.5798283,-0.007564772,0.1623455,0.3543319,1
2013-09-19 16:56:57.554,154,3.08,51.03965,13.79303,127,0,-1,12,10,1379602616,-0.1105347,-0.3565216,-0.7779236,15.42412,-6.861328,-46.0416,309.6052,306.4668,10,0.05242139,-0.2502642,0.2132026,0.2848399,-0.06370232,0.4512057,0.07594217,-0.2513753,0.3433364,0.002433003,0.1174169,0.2639719,1
2013-09-19 16:56:57.590,155,3.1,51.03965,13.79303,127,0,-1,12,10,1379602616,-0.1105347,-0.3565216,-0.7779236,15.49139,-7.735779,-45.97153,307.8318,304.6935,10,0.002239452,-0.2109554,0.04584073,0.2848399,-0.06370232,0.4512057,0.07594217,-0.2513753,0.3433364,0.002433003,0.1174169,0.2639719,1
2013-09-19 16:56:57.614,156,3.12,51.03965,13.79303,127,0,-1,12,10,1379602616,-0.05053711,-0.3700714,-0.9223785,16.02953,-7.601257,-45.69119,306.1523,303.0139,10,-0.08552981,-0.03878468,-0.05627233,0.2889209,-0.0754853,0.4493717,-0.1259592,-0.06719983,-0.05949006,-0.006612594,0.08006006,0.05338295,1
2013-09-19 16:56:57.650,157,3.14,51.03965,13.79303,127,0,-1,12,10,1379602616,-0.08992004,-0.4062347,-0.9529572,16.02953,-7.601257,-45.69119,306.1523,303.0139,10,-0.04747085,-0.06593641,-0.047249,0.287804,-0.0757217,0.4479903,-0.09400467,-0.04342124,-0.06047009,0.01764712,0.06308366,-0.02364187,1
2013-09-19 16:56:57.674,158,3.16,51.03965,13.79303,127,0,-1,12,10,1379602616,-0.155899,-0.4343567,-0.8673096,15.42413,-7.533997,-45.90146,306.2289,303.0905,10,-0.2609394,-0.01257678,-0.3806832,0.2821856,-0.07578292,0.440397,-0.08266581,-0.05826664,-0.2304695,-0.04905215,0.01185461,-0.038947,1
2013-09-19 16:56:57.711,159,3.18,51.03965,13.79303,127,0,-1,12,10,1379602616,-0.09832764,-0.4481354,-1.055252,15.42413,-7.533997,-45.90146,306.2289,303.0905,10,-0.5030669,-0.05225202,-0.5244065,0.2813644,-0.08436349,0.4411445,-0.2694169,-0.01725136,-0.3848647,-0.09183341,-0.008389084,0.06631552,1
2013-09-19 16:56:57.734,160,3.2,51.03965,13.79303,127,0,-1,12,10,1379602616,-0.07983398,-0.4670715,-1.16481,14.81874,-6.390472,-45.69122,307.8348,304.6964,10,-0.721746,0.07364333,-0.4188918,0.2442991,-0.07457723,0.4079815,-0.7037951,-0.003660662,-0.4839464,0.05311871,-0.1041277,-0.3165157,1
2013-09-19 16:56:57.776,161,3.22,51.03962,13.79298,124,0.1552083,-1,12,5,1379602617,-0.07983398,-0.4670715,-1.16481,14.54967,-5.583298,-45.69125,308.3797,305.2413,10,-0.9015314,-0.02658154,-0.5157166,0.2442991,-0.07457723,0.4079815,-0.7037951,-0.003660662,-0.4839464,0.05311871,-0.1041277,-0.3165157,1
2013-09-19 16:56:57.794,162,3.24,51.03962,13.79298,124,0.1552083,-1,12,5,1379602617,0.1752014,-0.3412933,-1.812607,14.54967,-4.238007,-45.55112,309.6864,306.548,10,-0.9607646,-0.07843063,-1.037585,0.2023329,-0.0650718,0.3579116,-1.198971,-0.3311484,-1.038148,-0.1626055,-0.03820038,-0.671553,1
2013-09-19 16:56:57.829,163,3.26,51.03962,13.79298,124,0.1552083,-1,12,5,1379602617,0.1752014,-0.3412933,-1.812607,14.41515,-1.950958,-45.97159,311.7346,308.5962,10,-0.3947388,0.1970625,-0.7020096,0.1856646,-0.06189871,0.3440422,-0.9692419,-0.08310509,-1.041766,-0.05272774,-0.02267495,-0.8092443,1
2013-09-19 16:56:57.854,164,3.28,51.03962,13.79298,124,0.1552083,-1,12,5,1379602617,-0.06077576,-0.2991791,-1.09758,15.55865,1.210526,-45.76135,314.0547,310.9163,10,0.7990346,-0.3527615,0.3283273,0.1694793,-0.05019364,0.3450275,0.6806613,-0.01131795,0.2039353,0.2148182,0.01710136,-0.5236048,1
2013-09-19 16:56:57.888,165,3.3,51.03962,13.79298,124,0.1552083,-1,12,5,1379602617,-0.2848511,-0.2995453,-0.8878632,15.96227,1.748642,-45.76135,314.8191,311.6807,10,0.3028778,-0.3606913,-0.01034239,0.1744937,-0.05543519,0.3555213,0.7905574,-0.3574359,0.3241459,0.1217204,0.03429737,-0.3306528,1
2013-09-19 16:56:57.914,166,3.32,51.03962,13.79298,124,0.1552083,-1,12,5,1379602617,-0.07710266,-0.3179779,-1.068893,16.63492,2.421295,-45.34088,314.9047,311.7663,10,0.2393423,-0.04506361,-0.5004641,0.1717186,-0.07069664,0.3726876,0.03011289,-0.06978299,-0.4645271,-0.1556622,0.03044063,-0.09250453,1
2013-09-19 16:56:57.951,167,3.34,51.03962,13.79298,124,0.1552083,-1,12,5,1379602617,-0.02311707,-0.3105774,-0.9124298,16.90398,2.286774,-45.48105,314.5558,311.4174,10,0.2393423,-0.04506361,-0.5004641,0.1717186,-0.07069664,0.3726876,0.03011289,-0.06978299,-0.4645271,-0.1556622,0.03044063,-0.09250453,1
2013-09-19 16:56:57.974,168,3.36,51.03962,13.79298,124,0.1552083,-1,12,5,1379602617,-0.02809143,-0.2902222,-0.5372009,16.90398,2.0177,-45.90149,314.4468,311.3084,10,0.6682097,0.217861,-0.5007334,0.1456637,-0.0576987,0.3984535,0.6593596,0.1926515,-0.4613489,0.02887247,0.09174409,0.1301656,1
2013-09-19 16:56:58.008,169,3.38,51.03962,13.79298,124,0.1552083,-1,12,5,1379602617,-0.02809143,-0.2902222,-0.5372009,16.50038,1.883163,-45.90149,315.1292,311.9908,10,0.6429737,0.2053915,-0.5649257,0.1388773,-0.05211947,0.4080236,0.6597298,0.2131866,-0.5049145,0.0128918,0.1139895,0.3078805,1
2013-09-19 16:56:58.013,170,3.4,51.03962,13.79298,124,0.1552083,-1,12,5,1379602617,0.01919556,-0.2810211,-0.3934326,15.69319,2.0177,-46.32196,318.1599,315.0215,10,0.5794692,0.1878791,-0.6114109,0.1311111,-0.04612485,0.4173319,0.6344937,0.2007172,-0.5691068,0.01405974,0.1151006,0.3760004,1
2013-09-19 16:56:58.034,171,3.42,51.03962,13.79298,124,0.1552083,-1,12,5,1379602617,0.05961609,-0.3113098,-0.4783783,15.15508,1.21051,-47.1629,319.6967,316.5583,10,0.3392707,0.1663935,-0.5596537,0.113548,-0.03365036,0.4329887,0.4441153,0.194324,-0.5905119,0.04973475,0.1385645,0.5137693,1
2013-09-19 16:56:58.068,172,3.44,51.03962,13.79298,124,0.1552083,-1,12,5,1379602617,0.05961609,-0.3113098,-0.4783783,14.81876,0.7396545,-47.51331,321.8193,318.6809,10,0.1721422,0.03447622,-0.5559705,0.1049957,-0.02755463,0.4382434,0.3307909,0.1617192,-0.5638347,0.09355104,0.1233851,0.5099064,1
2013-09-19 16:56:58.073,173,3.46,51.03962,13.79298,124,0.1552083,-1,12,5,1379602617,0.06541443,-0.3205261,-0.5708771,14.81876,0.7396545,-47.51331,321.8193,318.6809,10,0.1721422,0.03447622,-0.5559705,0.09671703,-0.02263912,0.4421576,0.2446568,0.06188985,-0.5461439,0.08933835,0.1208685,0.4755746,1
2013-09-19 16:56:58.094,174,3.48,51.03962,13.79298,124,0.1552083,-1,12,5,1379602617,0.03742981,-0.340271,-0.7151489,14.61694,0.4033356,-48.28418,322.9898,319.8514,10,-0.08962309,0.1745361,-0.5838009,0.07077117,-0.009247687,0.4471513,-0.01832654,0.1001486,-0.564982,0.07913914,0.1137341,0.2893698,1
2013-09-19 16:56:58.128,175,3.5,51.03962,13.79298,124,0.1552083,-1,12,5,1379602617,0.03393555,-0.353775,-0.8570557,14.54968,0.06700134,-48.63455,323.6247,320.4863,10,-0.1753521,0.2693028,-0.6311473,0.07077117,-0.009247687,0.4471513,-0.01832654,0.1001486,-0.564982,0.07913914,0.1137341,0.2893698,1
2013-09-19 16:56:58.154,176,3.52,51.03962,13.79298,124,0.1552083,-1,12,5,1379602617,0.1045074,-0.3859253,-1.016678,14.75148,0.8069305,-48.98495,325.1933,322.0549,10,0.05457456,0.4566701,-0.2372789,0.03526486,0.0210816,0.4393323,-0.1093008,0.4050835,-0.4590188,0.07302386,0.06983604,-0.08710863,1
2013-09-19 16:56:58.189,177,3.54,51.03962,13.79298,124,0.1552083,-1,12,5,1379602617,0.05696106,-0.4504547,-0.982605,15.08781,1.143265,-48.91489,328.024,324.8856,10,0.1657064,0.4335754,-0.0125893,0.0303809,0.02940856,0.4392536,0.04609531,0.4519966,-0.2414601,0.08221273,0.06103671,-0.1119999,1
2013-09-19 16:56:58.214,178,3.56,51.03962,13.79298,124,0.1552083,-1,12,5,1379602617,-0.1472321,-0.5785828,-1.012253,16.09679,1.61412,-48.70462,329.5142,326.3758,10,0.3474948,0.1126989,0.453531,0.03500546,0.04315796,0.4484405,0.290475,0.2233896,0.3660902,-0.04402083,-0.04136905,-0.06898355,1
2013-09-19 16:56:58.252,179,3.58,51.03962,13.79298,124,0.1552083,-1,12,5,1379602617,-0.1472321,-0.5785828,-1.012253,16.09679,1.61412,-48.70462,329.5142,326.3758,10,0.3320552,0.04458132,0.3994089,0.04148372,0.04232257,0.4532119,0.339017,0.1080291,0.4493481,-0.105223,-0.09429487,-0.1202991,1
2013-09-19 16:56:58.274,180,3.6,51.03962,13.79298,124,0.1552083,-1,12,5,1379602617,-0.09048462,-0.7342987,-1.029724,16.63492,0.9414673,-48.98495,328.8,325.6616,10,0.3020855,0.3720574,0.2801928,0.06212892,0.03627276,0.4679125,0.2421038,0.1637319,0.2813754,-0.213809,-0.1720533,-0.2742741,1
2013-09-19 16:56:58.309,181,3.62,51.03962,13.79298,124,0.1552083,-1,12,5,1379602617,-0.09048462,-0.7342987,-1.029724,16.43312,0.8741913,-49.19519,328.9082,325.7698,10,0.3142418,0.4204844,0.2909285,0.06212892,0.03627276,0.4679125,0.2421038,0.1637319,0.2813754,-0.213809,-0.1720533,-0.2742741,1
2013-09-19 16:56:58.334,182,3.64,51.03962,13.79298,124,0.1552083,-1,12,5,1379602617,-0.1492767,-0.5787201,-1.255493,16.76945,1.210526,-49.12509,329.0968,325.9584,10,-0.5015113,-0.03057735,-0.5631366,0.07292134,0.04447901,0.4779048,-0.2047428,-0.07928499,-0.1858325,-0.2175221,-0.2516128,-0.04994471,1
2013-09-19 16:56:58.366,183,3.66,51.03962,13.79298,124,0.1552083,-1,12,5,1379602617,0.2180786,-0.4583282,-1.49855,16.29858,1.277786,-49.19516,330.084,326.9456,10,-0.4939192,0.3842001,-0.7669108,0.06624645,0.04646876,0.4717602,-0.509989,-0.03524694,-0.5673194,-0.1906548,-0.1242652,-0.365685,1
2013-09-19 16:56:58.373,184,3.68,51.03962,13.79298,124,0.1552083,-1,12,5,1379602617,0.4875793,-0.3686829,-1.270554,16.70218,1.412323,-49.3353,329.8566,326.7182,10,0.1995794,1.090285,-0.1546191,0.04525262,0.06874651,0.4591859,-0.1638992,0.8721209,-0.5877237,0.1565018,-0.01510977,-0.6042542,1
2013-09-19 16:56:58.394,185,3.7,51.03962,13.79298,124,0.1552083,-1,12,5,1379602617,0.4609985,-0.3400574,-0.9536743,16.70218,1.412323,-49.3353,329.8566,326.7182,10,0.4531731,0.8897802,0.2440454,0.04044534,0.08537489,0.4599275,0.1911018,1.085615,-0.1588019,0.3235226,0.05260199,-0.5174116,1
2013-09-19 16:56:58.427,186,3.72,51.03962,13.79298,124,0.1552083,-1,12,5,1379602617,0.3194427,-0.3532867,-0.8088074,16.90398,1.479584,-49.40536,330.4908,327.3524,10,0.459284,0.3024099,0.4452936,0.04178135,0.09843544,0.4652799,0.4446955,0.8851107,0.2398627,0.4051821,0.1004522,-0.2286723,1
2013-09-19 16:56:58.433,187,3.74,51.03962,13.79298,124,0.1552083,-1,12,5,1379602617,0.2359924,-0.3368835,-0.8260193,17.64389,1.546844,-49.1951,330.9612,327.8228,10,0.1500915,-0.749238,0.4789692,0.05383876,0.0978912,0.4777119,0.293517,-0.3704107,0.4985318,0.2727342,0.1149456,0.08347414,1
2013-09-19 16:56:58.453,188,3.76,51.03962,13.79298,124,0.1552083,-1,12,5,1379602617,0.2132568,-0.3075104,-1.004196,17.37483,0.8741913,-49.33527,332.0918,328.9534,10,-0.3703485,-0.6825096,0.2361928,0.0673724,0.07144,0.4815472,-0.07001905,-0.7995247,0.3447274,0.1727305,0.1262674,0.05799943,1
2013-09-19 16:56:58.487,189,3.78,51.03962,13.79298,124,0.1552083,-1,12,5,1379602617,0.2132568,-0.3075104,-1.004196,17.37483,0.8741913,-49.89587,331.5579,328.4195,10,-0.5505111,-0.5167912,0.1548117,0.07175952,0.05932052,0.4778623,-0.3789537,-0.6871851,0.2320211,0.1650984,0.1480076,-0.006678808,1
2013-09-19 16:56:58.493,190,3.8,51.03962,13.79298,124,0.1552083,-1,12,5,1379602617,0.2160797,-0.2887421,-1.213638,17.37483,0.8741913,-49.89587,331.5579,328.4195,10,-0.5505111,-0.5167912,0.1548117,0.07175952,0.05932052,0.4778623,-0.3789537,-0.6871851,0.2320211,0.1650984,0.1480076,-0.006678808,1
2013-09-19 16:56:58.514,191,3.82,51.03962,13.79298,124,0.1552083,-1,12,5,1379602617,0.1549225,-0.2146454,-0.9536438,17.2403,1.14325,-49.89587,329.7594,326.621,10,-0.2114965,0.03911385,0.2738625,0.0799495,0.03894478,0.4571083,-0.3679209,-0.1438043,0.1808916,0.1966451,0.1753029,-0.3524781,1
2013-09-19 16:56:58.547,192,3.84,51.03962,13.79298,124,0.1552083,-1,12,5,1379602617,0.1549225,-0.2146454,-0.9536438,17.30757,1.614105,-50.38644,329.0864,325.948,10,-0.1963687,0.1956726,0.3540553,0.08383026,0.03689881,0.4536397,-0.2201017,0.03443838,0.2696908,0.1994457,0.1959914,-0.3162314,1
2013-09-19 16:56:58.553,193,3.86,51.03962,13.79298,124,0.1552083,-1,12,5,1379602617,0.1498566,-0.2212219,-0.8658905,16.90398,1.614105,-51.36755,329.3242,326.1859,10,0.008707738,0.2812005,0.5116007,0.09480134,0.03770631,0.4489395,-0.1280811,0.2912763,0.4033095,0.1145062,0.2175034,-0.006196118,1
2013-09-19 16:56:58.574,194,3.88,51.03962,13.79298,124,0.1552083,-1,12,5,1379602617,0.1388702,-0.2268372,-0.7695618,16.90398,1.614105,-51.36755,329.3242,326.1859,10,0.1982582,0.2357723,0.6310586,0.1020386,0.03859898,0.4485536,0.0001027002,0.2765251,0.507429,0.1150846,0.2124408,0.03451362,1
2013-09-19 16:56:58.608,195,3.9,51.03962,13.79298,124,0.1552083,-1,12,5,1379602617,0.03831482,-0.2523651,-0.6460266,17.30757,2.421295,-51.78802,329.389,326.2506,10,0.3495937,0.2492863,0.7558041,0.1110478,0.03808687,0.4505315,0.1896532,0.2310969,0.626887,0.1188896,0.2125284,0.08201229,1
2013-09-19 16:56:58.613,196,3.92,51.03962,13.79298,124,0.1552083,-1,12,5,1379602617,-0.04949951,-0.296524,-0.5540161,18.11476,2.421295,-52.62897,328.7279,325.5895,10,0.3328624,0.5326921,0.6731907,0.121875,0.03658138,0.4549184,0.3409887,0.2446109,0.7516324,0.1060166,0.2125518,0.1281341,1
2013-09-19 16:56:58.634,197,3.94,51.03962,13.79298,124,0.1552083,-1,12,5,1379602617,-0.0222168,-0.3383636,-0.5359039,18.78741,1.61412,-53.18958,327.6086,324.4702,10,0.1739225,0.4433082,0.4437527,0.1531882,0.0416135,0.4699636,0.2354053,0.5784113,0.5627297,-0.08659077,0.1563298,0.3367968,1
2013-09-19 16:56:58.668,198,3.96,51.03962,13.79298,124,0.1552083,-1,12,5,1379602617,-0.0222168,-0.3383636,-0.5359039,18.85468,0.8742065,-53.11951,327.1638,324.0254,10,0.1734469,0.189616,0.3847746,0.1604683,0.04521361,0.4728652,0.1653176,0.4386328,0.4395811,-0.0915843,0.1324257,0.3653399,1
2013-09-19 16:56:58.694,199,3.98,51.03962,13.79298,124,0.1552083,-1,12,5,1379602617,-0.04826355,-0.3874512,-0.6433411,19.05647,-0.0002593994,-53.32977,326.8611,323.7227,10,0.3528627,-0.4690546,0.323981,0.1782741,0.03567419,0.4824306,0.316443,-0.4190355,0.4000792,0.01312752,0.1025446,0.2630223,1
2013-09-19 16:56:58.727,200,4,51.03962,13.79298,124,0.1552083,-1,12,5,1379602617,-0.04826355,-0.3874512,-0.6433411,19.12373,-1.27829,-53.39984,325.584,322.4456,10,0.2125309,-0.3227802,0.190036,0.1835962,0.02657921,0.4874087,0.3442579,-0.4737299,0.3198094,-0.04827682,0.086151,0.2441993,1
2013-09-19 16:56:58.733,201,4.02,51.03962,13.79298,124,0.1552083,-1,12,5,1379602617,0.0214386,-0.4415131,-0.8511505,19.32553,-1.749161,-53.18961,323.9305,320.7921,10,0.1147146,-0.1317639,-0.02817917,0.188726,0.01564626,0.4931101,0.1274322,-0.1881591,0.06353454,-0.05954279,0.08176619,0.1843917,1
2013-09-19 16:56:58.753,202,4.04,51.03962,13.79298,124,0.1552083,-1,12,5,1379602617,0.0214386,-0.4415131,-0.8511505,19.32553,-1.749161,-53.18961,323.9305,320.7921,10,0.1275913,-0.1583039,-0.090662,0.1886555,0.0136839,0.4945631,0.1061099,-0.1364391,-0.0323507,-0.0554246,0.07001458,0.1249668,1
