time,timestamp,recordtime,lat,long,alt,speed,course,verticalAccuracy,horizontalAccuracy,locTimeStamp,accelerationX,accelerationY,accelerationZ,HeadingX,HeadingY,HeadingZ,TrueHeading,MagneticHeading,HeadingAccuracy,RotationX,RotationY,RotationZ,motionYaw,motionRoll,motionPitch,motionRotationRateX,motionRotationRateY,motionRotationRateZ,motionUserAccelerationX,motionUserAccelerationY,motionUserAccelerationZ,Event
2013-09-19 17:00:39.090,1,0.02,51.03943,13.79338,114,0,143.0859,6,5,1379602838,0.09793091,-0.424057,-0.9365387,-9.15123,-30.30623,-28.02975,149.9521,146.8137,10,-0.01123508,0.1641509,0.1402144,2.705538,0.06803225,0.3893834,-0.006273455,0.2477241,0.0470115,0.02371784,-0.04932174,0.02969261,3
2013-09-19 17:00:39.130,2,0.04,51.03943,13.79338,114,0,143.0859,6,5,1379602838,0.01019287,-0.3662872,-0.9346924,-9.8909,-30.64244,-27.67947,149.2744,146.136,10,0.1073046,-0.03966193,0.104022,2.705538,0.06803225,0.3893834,-0.006273455,0.2477241,0.0470115,0.02371784,-0.04932174,0.02969261,3
2013-09-19 17:00:39.178,3,0.06,51.03943,13.79338,114,0,143.0859,6,5,1379602838,0.08338928,-0.3629913,-1.094406,-9.756409,-30.50797,-26.979,149.9283,146.7899,10,0.1311791,0.1872754,-0.1142376,2.703681,0.07766003,0.3768769,-0.1743352,0.3045327,-0.1398675,0.02310819,-0.004372437,-0.1101544,3
2013-09-19 17:00:39.186,4,0.08,51.03943,13.79338,114,0,143.0859,6,5,1379602838,0.09162903,-0.3926239,-0.9290771,-8.882248,-30.84416,-27.18915,151.5094,148.371,10,0.02089143,-0.005681321,-0.136144,2.698093,0.08342812,0.3827254,0.1564324,-0.04464871,-0.1077109,-0.006684696,-0.01172751,-0.03308047,3
2013-09-19 17:00:39.242,5,0.09999999,51.03943,13.79338,114,0,143.0859,6,5,1379602838,0.1082153,-0.3943634,-0.9306641,-8.882248,-30.84416,-27.18915,151.5094,148.371,10,-0.03558356,-0.0330232,-0.142661,2.696091,0.0839111,0.3832819,0.004195552,-0.01062414,-0.1361534,-0.0117524,-0.0238761,0.01005558,3
2013-09-19 17:00:39.291,6,0.12,51.03943,13.79338,114,0,143.0859,6,5,1379602838,0.1103516,-0.4043121,-0.9633789,-7.873596,-29.97003,-27.53934,152.0746,148.9362,10,0.01353711,0.008349809,-0.002309493,2.687678,0.08688824,0.3810249,-0.0421155,0.00369195,-0.04500732,0.03242056,-0.03822317,-0.02210202,3
2013-09-19 17:00:39.306,7,0.14,51.03943,13.79338,114,0,143.0859,6,5,1379602838,0.09739685,-0.4044037,-0.941452,-7.201172,-29.97003,-27.39926,153.543,150.4047,10,0.04751159,0.04230485,0.04496348,2.687667,0.08765931,0.3823858,0.05931795,0.0104828,0.02368728,0.01721027,-0.02731664,-0.01723728,3
2013-09-19 17:00:39.354,8,0.16,51.03943,13.79338,114,0,143.0859,6,5,1379602838,0.08283997,-0.3752899,-0.9833679,-7.201172,-30.23901,-26.97894,154.0583,150.92,10,0.005713546,0.0279536,0.0457824,2.688182,0.08787649,0.3829993,0.03082537,0.03737116,0.04495129,0.01599206,-0.03069952,-0.01748317,3
2013-09-19 17:00:39.365,9,0.18,51.03943,13.79338,114,0,143.0859,6,5,1379602838,0.07350159,-0.3692627,-0.9266357,-7.73912,-31.04591,-27.53934,153.4132,150.2748,10,0.0906508,-0.03673777,0.0410481,2.690148,0.08726071,0.3835532,0.04190231,-0.04070654,0.05153647,0.002022203,-0.00107209,-0.05955543,3
2013-09-19 17:00:39.418,10,0.2,51.03943,13.79338,114,0,143.0859,6,5,1379602838,0.06352234,-0.3713074,-0.9113922,-8.142578,-30.91144,-27.67944,152.4961,149.3578,10,0.07468116,0.01175679,0.03456943,2.690777,0.08638181,0.3844882,0.07396466,-0.04167007,0.04103536,-0.00130125,-0.004126645,-0.04445292,3
2013-09-19 17:00:39.426,11,0.22,51.03943,13.79338,114,0,143.0859,6,5,1379602838,0.06878662,-0.3812866,-0.9614258,-8.277069,-30.64246,-27.95966,152.4762,149.3378,10,0.01692759,0.02934218,0.02899996,2.692299,0.08547059,0.3869704,0.0321679,0.01737725,0.03421073,-0.008604441,0.006138265,0.003715582,3
2013-09-19 17:00:39.474,12,0.24,51.03943,13.79338,114,0,143.0859,6,5,1379602838,0.06402588,-0.3833771,-0.9750214,-8.478806,-30.30626,-28.45001,152.4318,149.2934,10,0.04423857,0.02262675,0.0003701794,2.69317,0.08533144,0.3872009,0.006526479,-0.0002765962,0.0159139,-0.001510631,-0.0005453323,-0.01937035,3
2013-09-19 17:00:39.487,13,0.26,51.03943,13.79338,114,0,143.0859,6,5,1379602838,0.08636475,-0.3810272,-0.9610748,-8.478806,-30.17177,-28.30991,152.3869,149.2485,10,-0.009607087,0.009688847,-0.0267179,2.693056,0.08539315,0.3879222,0.01421326,9.232862e-05,-0.01900834,0.002239867,-0.01463274,-0.03399011,3
2013-09-19 17:00:39.533,14,0.28,51.03943,13.79338,114,0,143.0859,6,5,1379602838,0.09667969,-0.4005432,-0.9569092,-8.613281,-29.63383,-28.73019,152.315,149.1766,10,0.003935353,-0.01273497,-0.02644412,2.69279,0.08559746,0.3876601,-0.0262963,0.004752075,-0.02672911,-0.006501961,-0.005170809,-0.03796633,3
2013-09-19 17:00:39.546,15,0.3,51.03943,13.79338,114,0,143.0859,6,5,1379602838,0.08879089,-0.3956757,-0.9416656,-8.478806,-30.17177,-28.02972,152.2068,149.0684,10,0.06760195,-0.02108691,0.004490889,2.691865,0.08575518,0.387951,0.06449515,0.003687121,-0.0051885,0.01739457,-0.02225068,-0.03462471,3
2013-09-19 17:00:39.589,16,0.32,51.03943,13.79338,114,0,143.0859,6,5,1379602838,0.07800293,-0.3858948,-0.9216766,-8.478806,-30.17177,-28.02972,152.2068,149.0684,10,0.02818557,-0.008286959,0.01122389,2.691909,0.08555821,0.3887181,0.05091121,-0.02602309,0.004479308,0.01461033,-0.02157129,-0.030153,3
2013-09-19 17:00:39.607,17,0.34,51.03943,13.79338,114,0,143.0859,6,5,1379602838,0.07873535,-0.373291,-0.9641571,-8.882248,-30.84416,-28.02975,152.1137,148.9754,10,-0.03218617,0.01976678,0.02246802,2.692197,0.08500505,0.3899881,-0.02292489,-0.0003213217,0.009549943,0.002359165,-0.005656328,0.003834079,3
2013-09-19 17:00:39.650,18,0.36,51.03943,13.79338,114,0,143.0859,6,5,1379602838,0.07672119,-0.3772583,-0.9651489,-8.882248,-30.84416,-28.16983,152.0742,148.9358,10,-0.03059919,-0.04612701,-0.01095438,2.692602,0.08505719,0.3882083,-0.05227103,-0.01326764,-0.0076072,0.0001022687,0.005239649,-0.04191453,3
2013-09-19 17:00:39.666,19,0.38,51.03943,13.79338,114,0,143.0859,6,5,1379602838,0.08444214,-0.385025,-0.9707489,-9.15123,-30.97864,-27.88965,152.0334,148.895,10,0.04431793,0.04283988,-0.01060364,2.692211,0.08391487,0.3861938,0.01294215,0.009539898,-0.01908836,-0.003058328,-0.008481813,-0.04015177,3
2013-09-19 17:00:39.712,20,0.4,51.03943,13.79338,114,0,143.0859,6,5,1379602838,0.08537292,-0.3869781,-0.9687958,-9.958145,-30.57521,-28.59015,151.9431,148.8047,10,0.02839809,0.02035987,-0.01548708,2.692062,0.08421187,0.38679,0.02759582,0.03789288,-0.01062905,0.002301648,-0.01667283,-0.03251003,3
2013-09-19 17:00:39.726,21,0.42,51.03943,13.79338,114,0,143.0859,6,5,1379602838,0.08544922,-0.4015198,-0.916626,-9.15123,-30.70969,-28.30991,151.8433,148.7049,10,0.0641465,-0.05398947,-0.01830364,2.691097,0.08475094,0.3864005,0.02896763,-0.0187645,-0.02116938,0.006964485,-0.01012138,-0.04584882,3
2013-09-19 17:00:39.771,22,0.44,51.03943,13.79338,113,0,143.0859,8,5,1379602839,0.08544922,-0.4015198,-0.916626,-8.613281,-30.7097,-27.88962,151.8253,148.6869,10,0.03319897,-0.03184075,0.002958506,2.690544,0.08490843,0.3866406,0.04741978,-0.05893299,-0.01833082,0.02226871,-0.01258453,-0.03693342,3
2013-09-19 17:00:39.787,23,0.46,51.03943,13.79338,113,0,143.0859,8,5,1379602839,0.07319641,-0.3879852,-0.9313965,-8.277069,-30.50797,-27.95966,151.8154,148.6771,10,0.00469968,0.06607009,0.01779817,2.690033,0.08395819,0.3890583,0.001656634,-0.006129609,0.00742624,0.006895434,-0.01823524,0.01113409,3
2013-09-19 17:00:39.828,24,0.48,51.03943,13.79338,113,0,143.0859,8,5,1379602839,0.07824707,-0.3889618,-0.9486694,-7.73912,-30.77693,-27.39923,151.8429,148.7045,10,-0.01361088,0.05194363,0.004392884,2.690407,0.08492735,0.3891083,-0.01202019,0.06113015,0.01777023,-0.005287995,-0.008621672,-0.009483533,3
2013-09-19 17:00:39.846,25,0.5,51.03943,13.79338,113,0,143.0859,8,5,1379602839,0.07992554,-0.3852386,-1.001724,-7.806366,-30.70969,-27.18906,151.8674,148.729,10,0.01591292,-0.03316701,0.01122256,2.691024,0.0862313,0.3878445,-0.02539665,0.0150744,0.005801774,0.003997281,-0.009928674,-0.07450889,3
2013-09-19 17:00:39.890,26,0.52,51.03943,13.79338,113,0,143.0859,8,5,1379602839,0.07725525,-0.3859863,-0.940979,-7.873611,-30.77693,-26.69873,151.8951,148.7567,10,0.04807458,-0.06243169,-0.007572698,2.691134,0.08584239,0.387723,-0.0008068503,-0.03810839,0.01119521,0.007403781,-0.007080978,-0.08116129,3
2013-09-19 17:00:39.906,27,0.54,51.03943,13.79338,113,0,143.0859,8,5,1379602839,0.08401489,-0.381897,-0.928299,-7.940842,-31.3821,-26.48856,151.9714,148.8331,10,0.03820597,-0.01041536,-0.009174324,2.690907,0.08394035,0.3882569,0.01898083,-0.01423109,-0.004406911,-0.0003920193,-0.008387228,-0.01671439,3
2013-09-19 17:00:39.949,28,0.56,51.03943,13.79338,113,0,143.0859,8,5,1379602839,0.08866882,-0.3966217,-0.9329834,-7.940842,-31.3821,-26.48856,151.9714,148.8331,10,0.0147896,-0.005826198,-0.003424825,2.690738,0.08386818,0.388647,0.02148414,-0.0153571,-0.00920172,0.002525055,-0.005966317,-0.00619011,3
2013-09-19 17:00:39.967,29,0.58,51.03943,13.79338,113,0,143.0859,8,5,1379602839,0.08303833,-0.3928223,-0.9466095,-8.142578,-30.10452,-26.55859,151.9898,148.8514,10,0.007338607,0.005903163,0.003670635,2.69057,0.08385108,0.389015,-0.003169939,0.001055959,-0.003531154,0.01117373,-0.01734445,-0.01095125,3
2013-09-19 17:00:40.005,30,0.6,51.03943,13.79338,113,0,143.0859,8,5,1379602839,0.07943726,-0.3860474,-0.9611969,-8.209824,-30.03728,-27.18903,151.9802,148.8418,10,4.687164e-05,-0.004683435,-0.004802745,2.690789,0.08377172,0.3886571,-0.02045245,-0.003818668,0.004752608,0.005605049,-0.01387628,-0.02443596,3
2013-09-19 17:00:40.026,31,0.62,51.03943,13.79338,113,0,143.0859,8,5,1379602839,0.08679199,-0.40065,-0.9465027,-8.344315,-30.17175,-27.32913,151.9666,148.8283,10,0.01837581,-6.924219e-06,0.007447796,2.690724,0.08357676,0.3882906,0.009188038,-1.185463e-05,-0.01063023,0.003987974,-0.009347838,-0.03014196,3
2013-09-19 17:00:40.065,32,0.64,51.03943,13.79338,113,0,143.0859,8,5,1379602839,0.07815552,-0.3938904,-0.9486542,-8.142578,-29.70108,-27.39917,151.9505,148.8121,10,0.001195227,-0.02370959,0.006178001,2.690641,0.08375658,0.3886573,0.001655892,-0.004946079,0.007419548,0.009372676,-0.02170387,-0.02432805,3
2013-09-19 17:00:40.086,33,0.66,51.03943,13.79338,113,0,143.0859,8,5,1379602839,0.08297729,-0.392807,-0.9417877,-7.940826,-30.17175,-27.60931,151.9508,148.8124,10,0.03801449,0.01186545,0.01001642,2.690996,0.08303208,0.3884952,0.01146366,0.01518175,0.008626542,-0.007267743,-0.009326385,-0.0265456,3
2013-09-19 17:00:40.127,34,0.68,51.03943,13.79338,113,0,143.0859,8,5,1379602839,0.06951904,-0.3821716,-0.9411469,-8.47879,-30.03728,-27.88953,151.9286,148.7902,10,-0.003702593,-0.02133778,0.003696201,2.69119,0.08292036,0.3885411,0.02129387,0.006924671,0.009988768,0.001732612,-0.008185255,-0.03410747,3
2013-09-19 17:00:40.146,35,0.7,51.03943,13.79338,113,0,143.0859,8,5,1379602839,0.07124329,-0.3929749,-0.9401093,-8.277039,-30.64244,-27.95956,151.9242,148.7858,10,0.01228436,0.01068727,7.856325e-05,2.691603,0.08196136,0.3884036,0.01524477,0.01766528,-0.002208603,-0.005214913,-0.001491814,-0.02064631,3
2013-09-19 17:00:40.189,36,0.72,51.03943,13.79338,113,0,143.0859,8,5,1379602839,0.081604,-0.381134,-0.9717865,-8.680496,-31.04587,-28.51999,151.9117,148.7734,10,-0.01589721,0.03910399,-0.01366974,2.691588,0.08186473,0.3883999,-0.004437204,0.005744529,5.162971e-05,-0.005247961,-0.004409683,-0.01483925,3
2013-09-19 17:00:40.206,37,0.74,51.03943,13.79338,113,0,143.0859,8,5,1379602839,0.08267212,-0.4006195,-0.9282379,-8.882233,-30.97862,-28.44995,151.8952,148.7569,10,0.0493039,-0.03756682,-0.01010909,2.691235,0.0822509,0.3865974,-0.004387608,-0.01787411,-0.003440387,0.01136868,-0.009969538,-0.05725003,3
2013-09-19 17:00:40.249,38,0.76,51.03943,13.79338,113,0,143.0859,8,5,1379602839,0.09248352,-0.3985138,-0.9280548,-8.814987,-30.77692,-28.23978,151.8794,148.741,10,0.08605712,-0.01271926,0.002237055,2.690915,0.08206677,0.386699,0.03257874,-0.0425092,-0.01013647,0.0113892,-0.01280516,-0.04956851,3
2013-09-19 17:00:40.266,39,0.78,51.03943,13.79338,113,0,143.0859,8,5,1379602839,0.0896759,-0.3936462,-0.9310455,-9.21843,-30.77692,-27.95959,151.8568,148.7184,10,0.008474179,0.002252235,0.01456776,2.690331,0.08254069,0.3899227,0.002956569,0.002238444,-0.001055321,0.01622512,-0.01839686,-0.00626537,3
2013-09-19 17:00:40.309,40,0.8,51.03943,13.79338,113,0,143.0859,8,5,1379602839,0.07810974,-0.3899078,-0.9380493,-9.016708,-30.17172,-27.88956,151.8303,148.6919,10,-0.008897355,0.0008303736,0.0324887,2.690355,0.08286238,0.3902896,-0.008241777,-0.00268422,0.01453882,0.0168099,-0.01998013,-0.0006153972,3
2013-09-19 17:00:40.327,41,0.82,51.03943,13.79338,113,0,143.0859,8,5,1379602839,0.06391907,-0.3793793,-0.9586334,-8.814987,-29.83553,-26.97891,151.7807,148.6423,10,0.002346511,0.01764158,0.01079353,2.691378,0.08248439,0.3896665,-0.02666526,-0.008648775,0.01315768,-0.001873705,-0.009127659,-0.02587839,3
2013-09-19 17:00:40.368,42,0.84,51.03943,13.79338,113,0,143.0859,8,5,1379602839,0.0783844,-0.3890076,-0.9602356,-8.747742,-30.30621,-26.90884,151.7711,148.6327,10,0.02105309,0.02155243,-0.0191974,2.691952,0.08179749,0.3888982,-0.008056161,0.01882848,-0.008511203,-0.01844565,0.001620918,-0.04041298,3
2013-09-19 17:00:40.386,43,0.86,51.03943,13.79338,113,0,143.0859,8,5,1379602839,0.07543945,-0.3860779,-0.9516296,-8.882217,-30.30621,-27.04895,151.757,148.6186,10,0.02711577,-0.01876889,-0.005630988,2.691477,0.08201107,0.3886654,0.03376366,-0.009411364,-0.007889629,0.004619797,-0.01005384,-0.04560549,3
2013-09-19 17:00:40.429,44,0.88,51.03943,13.79338,113,0,143.0859,8,5,1379602839,0.09185791,-0.3927155,-0.9493408,-8.949463,-30.64243,-27.53931,151.7426,148.6043,10,0.01246279,-0.009240104,-0.01791775,2.691295,0.08190572,0.3888549,0.01039477,-0.02370955,-0.005658624,0.006645447,-0.008856226,-0.04083202,3
2013-09-19 17:00:40.446,45,0.9,51.03943,13.79338,113,0,143.0859,8,5,1379602839,0.08459473,-0.4015503,-0.9262848,-8.747742,-30.70969,-27.60934,151.7337,148.5954,10,0.07878909,0.01223456,-0.01246599,2.690532,0.08141024,0.3885544,0.02754796,-0.03317937,0.001826248,0.01659938,-0.01386448,-0.02694823,3
2013-09-19 17:00:40.487,46,0.92,51.03943,13.79338,113,0,143.0859,8,5,1379602839,0.08840942,-0.3985138,-0.9136658,-8.54599,-30.77692,-28.23981,151.7262,148.5878,10,0.01212005,0.0140567,0.01816516,2.690361,0.08158087,0.3894932,0.06206754,0.007297334,-0.01249504,0.007453057,-0.0179702,-0.01492583,3
2013-09-19 17:00:40.507,47,0.94,51.03943,13.79338,113,0,143.0859,8,5,1379602839,0.06185913,-0.3892822,-0.9663696,-8.277023,-30.50793,-28.23984,151.7113,148.5729,10,-0.004041879,0.01024971,0.03852715,2.690224,0.08297188,0.391544,-0.04887244,-0.004076897,0.02133402,0.01560419,-0.02571731,0.001799045,3
2013-09-19 17:00:40.549,48,0.96,51.03943,13.79338,113,0,143.0859,8,5,1379602839,0.0667572,-0.3852386,-0.9604797,-8.613251,-30.57518,-28.02969,151.6994,148.5611,10,0.01946797,0.009315738,0.02189465,2.691388,0.0825997,0.390858,-0.02075339,0.00531774,0.0384969,-0.01442429,-0.00830038,-0.0449394,3
2013-09-19 17:00:40.566,49,0.98,51.03943,13.79338,113,0,143.0859,8,5,1379602839,0.07565308,-0.3792267,-0.9593658,-8.949463,-30.64241,-27.95963,151.6824,148.544,10,0.02829262,0.0178754,-0.00340352,2.692117,0.08172224,0.3905568,0.009124298,0.007017277,-0.003427316,-0.008894891,-0.01240882,-0.03691548,3
2013-09-19 17:00:40.608,50,1,51.03943,13.79338,113,0,143.0859,8,5,1379602839,0.07052612,-0.3831635,-0.9459381,-9.21843,-30.64241,-27.53934,151.662,148.5237,10,0.02835468,-0.004548146,-0.008108793,2.692137,0.08159597,0.3903339,0.01157599,0.01293807,-0.003432012,-0.0008508568,-0.004619328,-0.03572277,3
2013-09-19 17:00:40.626,51,1.02,51.03943,13.79338,113,0,143.0859,8,5,1379602839,0.07829285,-0.3929596,-0.959259,-9.21843,-30.91139,-27.95966,151.6425,148.5041,10,0.001284443,-0.00230177,-0.006009157,2.691798,0.08110873,0.3897343,-0.02035488,-0.004892398,-0.006105029,-0.004418031,-0.003220771,-0.02396906,3
2013-09-19 17:00:40.668,52,1.04,51.03943,13.79338,113,0,143.0859,8,5,1379602839,0.07829285,-0.3929596,-0.959259,-9.151184,-30.70966,-27.74951,151.6237,148.4853,10,0.03940919,0.007317568,-0.008050203,2.691658,0.08118905,0.3895667,-0.01543571,-0.007240064,-0.006037557,0.006168641,-0.01311097,-0.03428758,3
2013-09-19 17:00:40.686,53,1.06,51.03943,13.79338,113,0,143.0859,8,5,1379602839,0.08267212,-0.3976288,-0.9234467,-8.075287,-31.24759,-27.4693,151.6467,148.5083,10,0.04920989,-0.02820048,-0.0005044027,2.691105,0.08150311,0.3898682,0.0336639,-0.01056387,-0.0114924,0.01171726,-0.01570072,-0.03523408,3
2013-09-19 17:00:40.734,54,1.08,51.03943,13.79338,113,0,143.0859,8,5,1379602839,0.07780457,-0.3947449,-0.9187164,-8.075287,-31.24759,-27.4693,151.6467,148.5083,10,0.002193646,0.03286181,0.02640178,2.690933,0.08119677,0.3910353,0.004006179,-0.00491899,0.005045427,0.007686946,-0.01648305,-0.001977638,3
2013-09-19 17:00:40.746,55,1.1,51.03943,13.79338,113,0,143.0859,8,5,1379602839,0.06770325,-0.3852386,-0.9595032,-7.806305,-31.38206,-27.74954,151.6699,148.5315,10,-0.009938917,-0.01790656,0.01326494,2.691939,0.08159436,0.390098,-0.05759119,-0.01593399,0.0201104,0.003034307,-0.0127263,-0.04712308,3
2013-09-19 17:00:40.793,56,1.12,51.03943,13.79338,113,0,143.0859,8,5,1379602839,0.07052612,-0.3891144,-0.9555664,-7.671829,-31.2476,-27.32922,151.7167,148.5783,10,0.02464489,0.008436361,-0.0070145,2.692266,0.08109689,0.3893647,-0.02678726,-0.02285103,0.01324931,0.0006626935,-0.005531101,-0.04303907,3
2013-09-19 17:00:40.808,57,1.14,51.03943,13.79338,113,0,143.0859,8,5,1379602839,0.06860352,-0.3722992,-0.9296265,-8.008057,-31.31483,-27.39926,151.7369,148.5985,10,0.01217251,-0.04744395,0.01850151,2.692227,0.08102126,0.3891603,0.001631795,-0.003651472,-0.004645076,0.00837081,-0.0095196,-0.03697466,3
2013-09-19 17:00:40.856,58,1.16,51.03943,13.79346,114,0,143.0859,8,5,1379602840,0.05986023,-0.3724365,-0.9336548,-7.402863,-31.2476,-26.76883,151.7752,148.6368,10,0.004953746,0.03320403,-0.007369499,2.692285,0.08066239,0.3889151,-0.004678966,-0.05238912,0.01848591,0.01270732,-0.004787427,-0.03679409,3
2013-09-19 17:00:40.912,59,1.18,51.03943,13.79346,114,0,143.0859,8,5,1379602840,0.09994507,-0.4016113,-0.9867706,-7.335632,-30.91139,-27.11908,151.8394,148.701,10,0.01128594,0.0298804,-0.0278018,2.691704,0.08073436,0.3871294,-0.02893191,0.02489147,-0.03168581,0.003766881,-0.01249808,-0.04401483,3
2013-09-19 17:00:40.926,60,1.2,51.03943,13.79346,114,0,143.0859,8,5,1379602840,0.08969116,-0.4035797,-0.9483643,-7.873566,-30.10449,-27.39926,151.8623,148.7239,10,-0.0221093,-0.06161516,0.003710582,2.690702,0.08171742,0.3868147,0.005333419,-0.05802517,-0.005501048,0.0280574,-0.0291927,-0.05495666,3
2013-09-19 17:00:40.970,61,1.22,51.03943,13.79346,114,0,143.0859,8,5,1379602840,0.0871582,-0.3988037,-0.9735107,-8.478745,-30.03726,-27.88962,151.8484,148.71,10,0.003601393,-0.02494343,0.01224761,2.690659,0.08089199,0.3866861,-0.03900185,-0.06655408,0.00370702,0.01485361,-0.02645838,-0.02522893,3
2013-09-19 17:00:40.986,62,1.24,51.03943,13.79346,114,0,143.0859,8,5,1379602840,0.05819702,-0.3940125,-0.9114227,-8.680481,-30.10449,-27.53934,151.8343,148.6959,10,0.05392289,-0.02840954,0.02248507,2.691164,0.07920992,0.3882533,0.06530549,-0.05208487,0.01566991,-0.005076811,-0.01440258,-0.004957929,3
2013-09-19 17:00:41.032,63,1.26,51.03943,13.79346,114,0,143.0859,8,5,1379602840,0.04710388,-0.3785553,-0.9377594,-8.882233,-30.97862,-27.4693,151.8279,148.6895,10,-0.001450091,-0.01919021,0.02664546,2.691455,0.07851877,0.3889695,0.03694846,-0.03333274,0.02249346,-0.01241341,-0.01573862,0.01012648,3
2013-09-19 17:00:41.046,64,1.28,51.03943,13.79346,114,0,143.0859,8,5,1379602840,0.05551147,-0.3618164,-0.9627533,-8.277023,-30.77692,-27.39926,151.8343,148.6959,10,0.001473527,-0.009195362,-0.026491,2.692878,0.07642485,0.3887646,-0.01567029,-0.02969835,-0.005876904,-0.02803526,0.01414685,-0.02777783,3
2013-09-19 17:00:41.090,65,1.3,51.03943,13.79346,114,0,143.0859,8,5,1379602840,0.07096863,-0.3714447,-0.9643097,-8.47876,-30.97862,-27.88962,151.8358,148.6974,10,0.02012924,0.004128965,-0.05170554,2.692907,0.0755363,0.3879957,-0.01550305,-0.01412336,-0.02648082,-0.02621502,0.01343514,-0.03029369,3
2013-09-19 17:00:41.107,66,1.32,51.03943,13.79346,114,0,143.0859,8,5,1379602840,0.1013489,-0.4013672,-0.9394684,-8.478745,-30.17172,-28.30991,151.8218,148.6834,10,0.02745666,-0.001817874,-0.0455555,2.690335,0.07605436,0.3879599,0.02548984,-0.03126816,-0.07180174,0.007119259,0.0001421705,-0.02282446,3
2013-09-19 17:00:41.150,67,1.34,51.03943,13.79346,114,0,143.0859,8,5,1379602840,0.08604431,-0.3878479,-0.9436951,-8.008057,-29.97002,-28.09976,151.8226,148.6842,10,0.01263297,-0.006684002,-0.03724457,2.689433,0.07620665,0.3881565,0.01040316,-0.006725861,-0.04553721,0.01345409,-0.01131832,-0.01114482,3
2013-09-19 17:00:41.166,68,1.36,51.03943,13.79346,114,0,143.0859,8,5,1379602840,0.08784485,-0.3937225,-0.9416962,-8.47876,-30.5752,-28.45004,151.8169,148.6786,10,0.0272745,0.009818543,-0.02630697,2.687834,0.0768909,0.3879974,-0.002021824,-0.01520006,-0.02993801,0.01493893,-0.009512413,-0.02076155,3
2013-09-19 17:00:41.216,69,1.38,51.03943,13.79346,114,0,143.0859,8,5,1379602840,0.09664917,-0.3995361,-0.9521027,-8.277023,-30.23898,-28.09979,151.8135,148.6751,10,0.03455025,0.01446789,-0.01538641,2.687472,0.07699135,0.3880337,0.01022237,0.004913472,-0.02628974,0.02551318,-0.01523141,-0.02438345,3
2013-09-19 17:00:41.226,70,1.4,51.03943,13.79346,114,0,143.0859,8,5,1379602840,0.07752991,-0.4085236,-0.9186707,-8.47876,-30.30621,-28.87036,151.7995,148.6611,10,-0.01869939,0.01267052,0.02748595,2.686553,0.07832884,0.3886412,-0.03666586,-0.03213887,-0.003675693,0.02696715,-0.02345819,-0.01689633,3
2013-09-19 17:00:41.286,71,1.42,51.03943,13.79346,114,0,143.0859,8,5,1379602840,0.05860901,-0.3951569,-0.9480591,-8.277023,-30.37347,-28.23987,151.7949,148.6565,10,-0.01507163,0.03274197,0.03224555,2.686851,0.07765868,0.3882248,-0.03574636,0.007768869,0.02750224,0.01162777,-0.03090841,-0.001554051,3
2013-09-19 17:00:41.364,72,1.44,51.03943,13.79346,114,0,143.0859,8,5,1379602840,0.0428009,-0.3619843,-0.9620361,-8.54599,-30.50795,-28.37997,151.7847,148.6463,10,-0.002415221,-0.001144094,-0.004849616,2.68906,0.07674332,0.3863165,8.192517e-05,-0.001242883,-0.002215427,-0.02450903,0.001031264,-0.04410509,3
2013-09-19 17:00:41.450,73,1.46,51.03943,13.79346,114,0,143.0859,8,5,1379602840,0.0428009,-0.3619843,-0.9620361,-8.277023,-31.71828,-28.09979,151.8133,148.6749,10,-0.008385495,-0.01872762,-0.02292742,2.688973,0.07674225,0.3860561,-0.01956257,-0.006018983,-0.004822928,-0.02837604,0.002697394,-0.04507534,3
2013-09-19 17:00:41.492,74,1.48,51.03943,13.79346,114,0,143.0859,8,5,1379602840,0.05506897,-0.3824615,-0.9588165,-7.537338,-30.97864,-28.59018,151.8594,148.721,10,0.0004450142,-0.01726421,-0.04818697,2.688973,0.07674225,0.3860561,-0.01956257,-0.006018983,-0.004822928,-0.02837604,0.002697394,-0.04507534,3
2013-09-19 17:00:41.579,75,1.5,51.03943,13.79346,114,0,143.0859,8,5,1379602840,0.05506897,-0.3824615,-0.9588165,-7.87355,-30.64243,-28.38,151.9001,148.7617,10,0.02508645,0.02076387,-0.05777675,2.688836,0.07652036,0.3857587,-0.02553281,-0.02360249,-0.02290073,-0.02227449,0.005488861,-0.04195726,3
2013-09-19 17:00:41.620,76,1.52,51.03943,13.79346,114,0,143.0859,8,5,1379602840,0.07650757,-0.3860931,-0.9612427,-9.016708,-31.38208,-29.01047,151.8716,148.7332,10,0.02508645,0.02076387,-0.05777675,2.688547,0.07551718,0.3847395,-0.01670573,-0.02214258,-0.04815913,-0.02712918,0.01333347,-0.03778163,3
2013-09-19 17:00:41.730,77,1.54,51.03943,13.79346,114,0,143.0859,8,5,1379602840,0.07650757,-0.3860931,-0.9612427,-8.949463,-31.31485,-29.36075,151.8584,148.72,10,0.04718376,0.00778442,-0.05263045,2.687724,0.07595219,0.3846551,0.007935775,0.01588552,-0.05774891,-0.01526557,-0.007222078,-0.03456094,3
2013-09-19 17:00:41.833,78,1.56,51.03943,13.79346,114,0,143.0859,8,5,1379602840,0.07650757,-0.3860931,-0.9612427,-9.28566,-30.97864,-29.57089,151.7626,148.6242,10,0.03356861,-0.03616653,-0.03805684,2.686868,0.07645032,0.3849547,0.03003313,0.002906084,-0.05260262,-8.154854e-07,-0.008744931,-0.04499265,3
2013-09-19 17:00:41.870,79,1.58,51.03943,13.79346,114,0,143.0859,8,5,1379602841,0.06947327,-0.3742371,-0.9247742,-9.218414,-31.18036,-29.64093,151.7398,148.6014,10,-0.006894125,-0.01014638,-0.05313646,2.686868,0.07645032,0.3849547,0.03003313,0.002906084,-0.05260262,-8.154854e-07,-0.008744931,-0.04499265,3
2013-09-19 17:00:41.886,80,1.6,51.03943,13.79346,114,0,143.0859,8,5,1379602841,0.06637573,-0.3841095,-0.9247894,-8.142532,-30.50793,-29.50082,151.6542,148.5158,10,0.02116734,-0.04935024,-0.02484463,2.683375,0.07673367,0.3826399,-0.008583397,-0.03666438,-0.00573361,-0.006188477,-0.005031927,-0.03464231,3
2013-09-19 17:00:41.932,81,1.62,51.03943,13.79346,114,0,143.0859,8,5,1379602841,0.06576538,-0.3723602,-0.9374084,-7.537338,-29.90277,-28.73029,151.6667,148.5284,10,-0.02117639,-0.01695342,0.03244902,2.683218,0.07784372,0.3830556,0.04272313,0.01299385,0.0211319,0.0002584524,-0.01926423,-0.02984125,3
2013-09-19 17:00:41.992,82,1.64,51.03943,13.79346,114,0,143.0859,8,5,1379602841,0.06344604,-0.3627319,-0.9732056,-5.923508,-28.9614,-28.16986,151.7602,148.6218,10,-0.01244575,0.03885472,0.01292698,2.685676,0.07459732,0.3813325,-0.02732606,0.04710106,0.01413012,-0.01241207,-0.003254383,0.0005699183,3
2013-09-19 17:00:42.006,83,1.66,51.03943,13.79346,114,0,143.0859,8,5,1379602841,0.08169556,-0.3782196,-0.9747009,-5.990768,-29.29761,-26.69879,151.907,148.7687,10,0.0468751,0.02875149,-0.02015507,2.686161,0.07423926,0.3786118,-0.02325918,0.000182782,-0.02419622,-0.009607276,-0.002988688,-0.04371766,3
2013-09-19 17:00:42.049,84,1.68,51.03943,13.79346,114,0,143.0859,8,5,1379602841,0.09861755,-0.3925934,-0.9443665,-6.125259,-29.56659,-27.11911,151.9666,148.8282,10,0.08127835,0.03950506,-0.01862295,2.685836,0.07457292,0.3786426,0.02955171,0.02398726,-0.02011434,0.0005977079,-0.01065054,-0.03770956,3
2013-09-19 17:00:42.066,85,1.7,51.03943,13.79346,114,0,143.0859,8,5,1379602841,0.08122253,-0.3869324,-0.9476318,-6.461456,-29.90279,-26.76883,152.0214,148.883,10,-0.02828996,-0.03444612,0.004700479,2.684736,0.07655928,0.3801925,-0.009971351,-0.02725209,0.005071684,0.02759455,-0.02149418,-0.01849329,3
2013-09-19 17:00:42.112,86,1.72,51.03943,13.79346,114,0,143.0859,8,5,1379602841,0.06878662,-0.3842621,-0.9652863,-6.394226,-30.64244,-27.11911,152.0836,148.9453,10,0.001084705,0.01760163,0.01440131,2.684725,0.07638425,0.3800091,-0.04561176,-0.03920328,0.004738535,0.0179858,-0.02180178,-0.0166888,3
2013-09-19 17:00:42.126,87,1.74,51.03943,13.79346,114,0,143.0859,8,5,1379602841,0.08230591,-0.3899536,-0.9630737,-6.394226,-30.91141,-27.95972,152.1424,149.004,10,0.003507916,-0.04162068,0.0244092,2.685314,0.07656163,0.3793482,0.005922823,-0.009535525,0.0136012,0.007594688,-0.01481669,-0.04952297,3
2013-09-19 17:00:42.170,88,1.76,51.03943,13.79346,114,0,143.0859,8,5,1379602841,0.063797,-0.3813171,-0.9518738,-6.595947,-31.11313,-27.32928,152.2016,149.0632,10,-0.03458967,-0.07015139,0.02534663,2.685576,0.07618292,0.3794785,-0.01381189,-0.04637536,0.02444644,0.01155019,-0.02644502,-0.0426625,3
2013-09-19 17:00:42.186,89,1.78,51.03943,13.79346,114,0,143.0859,8,5,1379602841,0.0493927,-0.3647766,-0.9454803,-6.797668,-31.18037,-27.95975,152.3055,149.1671,10,0.03060558,-0.01305668,0.01610547,2.687303,0.07303299,0.3782776,-0.004149878,-0.01930597,0.04130664,-0.007888128,-0.01108119,-0.02512522,3
2013-09-19 17:00:42.231,90,1.8,51.03943,13.79346,114,0,143.0859,8,5,1379602841,0.06309509,-0.3705292,-0.9557953,-6.797668,-31.18037,-27.95975,152.3055,149.1671,10,0.0406457,-0.0009568738,-0.007991347,2.687757,0.07234579,0.3783264,0.013286,-0.01781374,0.01614369,-0.01097304,-0.005206974,-0.03098671,3
2013-09-19 17:00:42.246,91,1.82,51.03943,13.79346,114,0,143.0859,8,5,1379602841,0.0717926,-0.3842468,-0.9719696,-7.402847,-30.84418,-26.76889,152.398,149.2596,10,-0.001067395,-0.001008805,-0.01811376,2.687869,0.07115068,0.3774648,-0.0330754,-0.01048213,-0.02545503,-0.002990924,-0.001964275,-0.02854529,3
2013-09-19 17:00:42.304,92,1.84,51.03943,13.79346,114,0,143.0859,8,5,1379602841,0.08538818,-0.3889618,-0.9736023,-7.402847,-30.84418,-26.76889,152.398,149.2596,10,0.07876752,-0.02567154,-0.006223808,2.687586,0.07111113,0.3769836,-0.01839183,-0.005771012,-0.01807385,0.001839669,-0.005310761,-0.02825909,3
2013-09-19 17:00:42.350,93,1.86,51.03943,13.79346,114,0,143.0859,8,5,1379602841,0.07096863,-0.3704529,-0.9633789,-6.125244,-30.239,-26.69885,152.5691,149.4307,10,-0.008683769,0.01527296,0.007062171,2.687245,0.07173196,0.3781259,-0.04699469,0.00205791,0.01777574,0.002362198,0.006645838,-0.01910726,3
2013-09-19 17:00:42.366,94,1.88,51.03943,13.79346,114,0,143.0859,8,5,1379602841,0.06991577,-0.3783875,-0.9691467,-5.856277,-30.10451,-27.11917,152.6377,149.4994,10,0.006256831,-0.003407515,-0.01198343,2.687586,0.07190885,0.3765581,-0.009934422,-0.009448449,-0.001062289,0.004994861,-0.009612671,-0.03580059,3
2013-09-19 17:00:42.418,95,1.9,51.03943,13.79346,114,0,143.0859,8,5,1379602841,0.07542419,-0.3890381,-0.9564514,-5.654541,-30.03728,-27.04913,152.7114,149.573,10,0.01614169,-0.02344327,-0.01538508,2.68749,0.07180832,0.3763852,-0.01106885,-0.008162781,-0.01194636,0.001192559,-0.007850872,-0.03289234,3
2013-09-19 17:00:42.426,96,1.92,51.03943,13.79346,114,0,143.0859,8,5,1379602841,0.07064819,-0.3782806,-0.9488678,-5.990753,-30.37349,-26.83896,152.8674,149.729,10,0.01107822,0.008341287,-0.002336658,2.687086,0.07127902,0.3766016,-0.01119703,-0.007121907,0.002532144,0.002253786,-0.02036023,-0.01841013,3
2013-09-19 17:00:42.469,97,1.94,51.03943,13.79346,114,0,143.0859,8,5,1379602841,0.07817078,-0.3928986,-0.9476776,-6.932144,-29.5666,-26.97906,152.9101,149.7717,10,0.04426866,0.02502785,-0.003264236,2.687136,0.07120681,0.3765199,-0.006245524,0.003587015,-0.00229981,-0.0003669176,-0.01065532,-0.02330397,3
2013-09-19 17:00:42.486,98,1.96,51.03943,13.79346,114,0,143.0859,8,5,1379602841,0.05793762,-0.379425,-0.9481354,-7.201111,-29.83554,-26.55875,152.9505,149.8121,10,0.002382198,-0.03677506,0.01229821,2.687407,0.0720441,0.3773296,-0.01990881,-0.01910879,0.01577825,0.007682207,-0.01373243,-0.03117952,3
2013-09-19 17:00:42.527,99,1.98,51.03943,13.79346,114,0,143.0859,8,5,1379602841,0.06587219,-0.372406,-0.947052,-7.13385,-30.30623,-27.32932,152.9922,149.8539,10,0.03435877,-0.001133441,0.007632353,2.687688,0.07144891,0.3769266,-0.0149405,-0.04152756,0.01233445,0.003630619,-0.008369776,-0.04557924,3
2013-09-19 17:00:42.546,100,2,51.03943,13.79346,114,0,143.0859,8,5,1379602841,0.05995178,-0.3774414,-0.951004,-7.268341,-29.90279,-27.46942,153.0252,149.8869,10,0.00372736,-0.02125229,-0.002257029,2.688186,0.07056767,0.3772639,-0.01118009,-0.0260456,0.002635936,0.0003215573,-0.004027852,-0.0196898,3
2013-09-19 17:00:42.587,101,2.02,51.03943,13.79346,114,0,143.0859,8,5,1379602841,0.07551575,-0.3801422,-0.9477844,-7.402832,-30.03726,-28.02982,153.0518,149.9134,10,0.03077895,0.02383343,-0.00702968,2.688253,0.07004271,0.3769499,-0.01359654,-0.02600764,-0.002219766,-0.005120105,-0.009355173,-0.02349221,3
2013-09-19 17:00:42.606,102,2.04,51.03943,13.79346,114,0,143.0859,8,5,1379602841,0.06111145,-0.3695679,-0.9529572,-8.277008,-30.37347,-28.80038,153.0748,149.9364,10,-0.05281075,-0.06286978,-0.0002466087,2.688393,0.07113042,0.3775677,-0.02238324,-0.002560551,0.01566052,0.0144561,-0.004538865,-0.02243251,3
2013-09-19 17:00:42.645,103,2.06,51.03943,13.79346,114,0,143.0859,8,5,1379602841,0.0599823,-0.3794403,-0.9558105,-9.28566,-30.17172,-29.15063,153.0475,149.9092,10,0.05280889,0.03919135,0.002789661,2.68849,0.07038251,0.376339,-0.07013628,-0.06762305,-0.0002102883,-0.0002630783,0.002939903,-0.02614363,3
2013-09-19 17:00:42.667,104,2.08,51.03943,13.79346,114,0,143.0859,8,5,1379602841,0.07324219,-0.3929749,-0.94487,-10.09258,-30.5752,-29.57095,153.0043,149.8659,10,0.009815346,-0.002355033,0.002536395,2.688152,0.07050206,0.3768,0.004875783,-0.01406672,-0.006907774,0.01097523,-0.01515558,-0.02600012,3
2013-09-19 17:00:42.707,105,2.1,51.03943,13.79346,114,0,143.0859,8,5,1379602841,0.07096863,-0.3773956,-0.973938,-9.621857,-30.64244,-29.0806,152.9763,149.838,10,0.002368615,0.02950463,0.00710771,2.687999,0.07047515,0.3770352,-0.007502203,-0.007015099,0.002571855,0.008793756,-0.0228104,-0.01645643,3
2013-09-19 17:00:42.726,106,2.12,51.03943,13.79346,114,0,143.0859,8,5,1379602841,0.06001282,-0.371521,-0.9461975,-8.814941,-30.50795,-27.81967,152.9754,149.837,10,0.02330719,-0.01654755,0.007593205,2.688365,0.07056203,0.3767785,-0.006330214,-0.04022081,0.0124231,0.00336594,-0.01342083,-0.04548163,3
2013-09-19 17:00:42.777,107,2.14,51.03943,13.79346,114,0,143.0859,8,5,1379602841,0.07174683,-0.372345,-0.9488678,-8.008026,-30.77692,-27.67953,152.9982,149.8598,10,0.05163204,0.002546781,0.0005621933,2.688531,0.07004997,0.3767571,0.005989967,-0.02120687,0.007628401,-8.114906e-05,-0.008527367,-0.03393521,3
2013-09-19 17:00:42.785,108,2.16,51.03943,13.79346,114,0,143.0859,8,5,1379602841,0.05789185,-0.3804016,-0.9462128,-6.864899,-30.97864,-26.76889,153.1046,149.9662,10,-0.04789216,-0.03917483,-0.002735599,2.688577,0.07057457,0.3777386,-0.0124517,0.01779267,0.003587956,0.006202137,-0.003525531,-0.02168059,3
2013-09-19 17:00:42.831,109,2.18,51.03943,13.79346,114,0,143.0859,8,5,1379602841,0.06820679,-0.3794861,-0.9913635,-6.864899,-30.97864,-26.76889,153.1046,149.9662,10,0.03556572,0.05093402,0.004947355,2.688661,0.07017335,0.3769058,-0.06521007,-0.0438344,-0.002700355,0.002631118,-0.005352634,-0.02238588,3
2013-09-19 17:00:42.846,110,2.2,51.03943,13.79346,114,0,143.0859,8,5,1379602841,0.0743866,-0.384079,-0.9429626,-7.470093,-31.31485,-27.39938,153.1979,150.0595,10,0.04316984,0.04884477,-0.02030634,2.688514,0.06970634,0.3771271,0.05169325,-0.02435835,-0.01598671,0.000338635,-0.004246627,-0.03504056,3
2013-09-19 17:00:42.888,111,2.22,51.03943,13.79346,114,0,143.0859,8,5,1379602841,0.07252502,-0.3831482,-0.9497681,-7.940781,-31.24762,-27.60953,153.226,150.0876,10,0.03802488,0.03792075,0.00625257,2.688207,0.06995648,0.3777074,0.02585053,0.04418261,-0.02027018,-0.01213122,-0.008666206,-0.0007547631,3
2013-09-19 17:00:42.907,112,2.24,51.03943,13.79346,114,0,143.0859,8,5,1379602841,0.0688324,-0.3803253,-0.9633789,-8.478745,-31.3821,-28.02985,153.2391,150.1007,10,-0.01854279,0.04362364,0.006797452,2.688006,0.07079241,0.3785122,-0.02596956,-6.551275e-06,0.00474125,0.004692848,-0.009627219,-0.003623466,3
2013-09-19 17:00:42.948,113,2.26,51.03943,13.79346,114,0,143.0859,8,5,1379602841,0.06529236,-0.3705902,-0.9769897,-8.680481,-31.44934,-28.52017,153.2441,150.1057,10,-0.003854127,0.05544302,0.01293231,2.688142,0.07109939,0.378187,-0.0358585,0.03896452,0.006832697,-0.0004677755,-0.009013942,-0.003645916,3
2013-09-19 17:00:42.967,114,2.28,51.03943,13.79346,114,0,143.0859,8,5,1379602842,0.07559204,-0.3871155,-0.9670563,-8.949463,-31.58383,-28.94046,153.2358,150.0974,10,0.02585716,0.02854696,-0.007110374,2.688259,0.07222672,0.3775123,0.034388,0.01099177,-0.00913049,-0.001790119,-0.001981111,-0.04982888,3
2013-09-19 17:00:43.008,115,2.3,51.03943,13.79346,114,0,143.0859,8,5,1379602842,0.07559204,-0.3871155,-0.9670563,-8.949463,-31.58383,-28.94046,153.2358,150.0974,10,-0.01346787,-0.0402361,-0.002345446,2.688065,0.0725575,0.3776101,0.008537241,0.02388708,-0.00707515,0.002605519,-0.00275999,-0.03722227,3
2013-09-19 17:00:43.026,116,2.32,51.03943,13.79346,114,0,143.0859,8,5,1379602842,0.07162476,-0.3742828,-0.9421082,-8.882202,-31.24763,-29.43082,153.2103,150.0719,10,0.0272239,0.006210758,-0.02025174,2.687588,0.07237234,0.3771759,0.04296496,0.01927787,-0.00666577,-0.001293228,-0.004140147,-0.02557563,3
2013-09-19 17:00:43.064,117,2.34,51.03943,13.79346,114,0,143.0859,8,5,1379602842,0.0753479,-0.3880157,-0.9467926,-8.680466,-31.31487,-28.94046,153.2104,150.072,10,-0.007288539,-0.002296444,-0.009726397,2.687268,0.0726255,0.3773042,0.009903692,0.001552077,-0.02021699,0.004166992,-0.005867183,-0.01489763,3
2013-09-19 17:00:43.086,118,2.36,51.03943,13.79346,114,0,143.0859,8,5,1379602842,0.06877136,-0.3783264,-0.9546967,-8.411499,-30.91142,-28.66025,153.2135,150.0751,10,0.02936242,0.02835707,0.01345109,2.686898,0.07322563,0.3772285,0.002286321,0.02374987,0.00492631,0.008262433,-0.02757459,-0.03013872,3
2013-09-19 17:00:43.129,119,2.38,51.03943,13.79346,114,0,143.0859,8,5,1379602842,0.07055664,-0.3831635,-0.9478607,-8.613235,-30.44073,-29.1506,153.2019,150.0635,10,0.007264571,-0.00838443,0.01340502,2.686949,0.0738299,0.3777106,0.01204774,0.02370221,0.01348479,0.009912547,-0.01429373,-0.03037247,3
2013-09-19 17:00:43.146,120,2.4,51.03943,13.79346,114,0,143.0859,8,5,1379602842,0.06219482,-0.364624,-0.9539185,-9.083939,-30.239,-28.94043,153.1643,150.0259,10,0.04777418,0.02483824,0.01729723,2.687533,0.07299744,0.3773189,-0.005154236,0.001157976,0.01462333,0.0009080965,-0.01383384,-0.0294393,3
2013-09-19 17:00:43.186,121,2.42,51.03943,13.79346,114,0,143.0859,8,5,1379602842,0.06219482,-0.364624,-0.9539185,-9.083939,-30.239,-28.94043,153.1643,150.0259,10,0.02593519,0.0002218413,-0.01299037,2.687753,0.07311497,0.3775855,0.03046037,0.02018247,0.01733136,-0.001040015,-0.01264003,-0.03633541,3
2013-09-19 17:00:43.206,122,2.44,51.03943,13.79346,114,0,143.0859,8,5,1379602842,0.06668091,-0.3733215,-0.9335175,-9.554642,-30.84416,-29.0105,153.1057,149.9673,10,0.02588673,0.01910898,-0.009472864,2.687344,0.07264775,0.3773714,0.01350211,-0.004455164,-0.009279621,-0.0034965,0.0009549019,-0.01797557,3
2013-09-19 17:00:43.246,123,2.46,51.03943,13.79346,114,0,143.0859,8,5,1379602842,0.07168579,-0.3772888,-0.9517365,-9.420151,-31.24762,-29.15057,153.0874,149.949,10,-0.002391252,0.0213748,-0.009800966,2.687174,0.07273559,0.3775312,0.008568329,0.0144505,-0.009438016,-0.0008728552,-0.004694891,-0.006397783,3
2013-09-19 17:00:43.266,124,2.48,51.03943,13.79346,114,0,143.0859,8,5,1379602842,0.07275391,-0.3852234,-0.9729309,-9.352905,-31.44934,-29.64093,153.0699,149.9315,10,0.05661907,0.03460458,-0.01042148,2.68666,0.0732467,0.3768848,0.002384361,0.008468166,-0.004646129,0.002648928,-0.01916604,-0.03982537,3
2013-09-19 17:00:43.310,125,2.5,51.03943,13.79346,114,0,143.0859,8,5,1379602842,0.0743103,-0.3929901,-0.9516144,-9.083939,-31.04588,-28.94043,153.0586,149.9202,10,0.01602903,-0.01764877,-0.003346528,2.686503,0.07373972,0.3774481,0.0393027,0.02994708,-0.01038686,0.00498413,-0.0254783,-0.03806701,3
2013-09-19 17:00:43.327,126,2.52,51.03943,13.79346,114,0,143.0859,8,5,1379602842,0.07344055,-0.3831177,-0.9449005,-9.016708,-30.70969,-29.01044,153.0225,149.8841,10,0.03683578,0.0154687,0.00394787,2.686254,0.07368291,0.3781058,-0.0001402288,9.940435e-05,0.003820786,0.007114593,-0.01198852,-0.02480105,3
2013-09-19 17:00:43.366,127,2.54,51.03943,13.79346,114,0,143.0859,8,5,1379602842,0.07426453,-0.3929596,-0.9477539,-9.016708,-30.70969,-29.01044,153.0225,149.8841,10,0.02329813,0.007118363,0.006256565,2.686205,0.07381774,0.3781133,0.01951996,0.01081337,0.003981686,0.005311363,0.0007747712,-0.0277885,3
2013-09-19 17:00:43.386,128,2.56,51.03943,13.79346,114,0,143.0859,8,5,1379602842,0.05810547,-0.3755341,-0.9568481,-8.613251,-30.44072,-29.01044,152.9937,149.8553,10,0.03693511,0.0001890844,-0.005624596,2.68653,0.07431657,0.3789741,-0.01629204,0.01287565,0.02167751,0.00136314,-0.02503675,-0.02327248,3
2013-09-19 17:00:43.427,129,2.58,51.03943,13.79346,114,0,143.0859,8,5,1379602842,0.07354736,-0.38414,-0.9545593,-8.680481,-30.91141,-29.22061,152.9881,149.8497,10,0.04811054,-0.01622265,-0.01627458,2.6867,0.07408044,0.3784516,0.0196196,-0.004466664,-0.005590578,-0.006366951,0.002798138,-0.04943077,3
2013-09-19 17:00:43.446,130,2.6,51.03943,13.79346,114,0,143.0859,8,5,1379602842,0.07719421,-0.3800201,-0.9255524,-8.411499,-30.64244,-29.22058,152.9854,149.847,10,0.03313958,-0.0129648,0.007683486,2.686192,0.07337458,0.3794267,0.01726228,-0.02212238,-0.01517703,0.005452532,-0.01375202,-0.02818153,3
2013-09-19 17:00:43.485,131,2.62,51.03943,13.79346,114,0,143.0859,8,5,1379602842,0.05856323,-0.3743286,-0.9105225,-8.680466,-30.37349,-29.78101,152.968,149.8296,10,0.008498413,0.0117496,0.01089473,2.686027,0.07353199,0.3799118,0.01582563,-0.01761984,0.007717345,0.008966768,-0.009181602,0.0006354062,3
2013-09-19 17:00:43.507,132,2.64,51.03943,13.79346,114,0,143.0859,8,5,1379602842,0.0756073,-0.3871155,-0.9680176,-8.209778,-30.97865,-29.57083,152.9727,149.8343,10,0.001384311,0.03213983,-0.02068158,2.686263,0.07375915,0.3793032,-0.03321929,0.03206944,-0.01241496,-0.01523179,0.004581179,-0.01418514,3
2013-09-19 17:00:43.545,133,2.66,51.03943,13.79346,114,0,143.0859,8,5,1379602842,0.07507324,-0.3764191,-0.9893036,-8.545975,-30.239,-29.36069,152.9594,149.821,10,-0.01700801,0.0262087,-0.02568353,2.686105,0.07393768,0.378692,-0.01593073,0.02748094,-0.02064626,-0.004656444,-0.006744147,-0.03299954,3
2013-09-19 17:00:43.566,134,2.68,51.03943,13.79346,114,0,143.0859,8,5,1379602842,0.07847595,-0.3850708,-0.9612122,-8.142532,-30.91139,-29.50076,152.9505,149.8121,10,0.0787811,0.008674448,-0.01123987,2.684782,0.07536726,0.3771843,0.009907547,-0.01265048,-0.01893263,0.008533959,-0.02572355,-0.05341787,3
2013-09-19 17:00:43.610,135,2.7,51.03943,13.79346,114,0,143.0859,8,5,1379602842,0.07902527,-0.3908539,-0.933197,-8.008057,-30.77692,-28.80023,152.9622,149.8239,10,0.08135238,0.002888465,-0.02325099,2.68446,0.07555248,0.3777938,0.06146345,0.004017459,-0.01120547,0.002550349,-0.01931289,-0.04608649,3
2013-09-19 17:00:43.627,136,2.72,51.03943,13.79346,114,0,143.0859,8,5,1379602842,0.07058716,-0.3822021,-0.9498138,-8.882217,-30.57518,-29.01041,152.9467,149.8083,10,-0.01842268,-0.02135376,-8.921589e-05,2.683649,0.07567783,0.379397,-0.01600569,-0.02586946,-0.007078601,0.006827728,-0.01753328,-0.0002536798,3
2013-09-19 17:00:43.670,137,2.74,51.03943,13.79346,114,0,143.0859,8,5,1379602842,0.07374573,-0.3772888,-0.9613342,-9.016708,-30.84415,-28.59012,152.9343,149.796,10,0.01714916,0.04734461,0.002347044,2.683626,0.07529403,0.3789284,-0.03573995,-0.02601006,-5.50463e-05,0.01095435,-0.02283617,0.0009990296,3
2013-09-19 17:00:43.687,138,2.76,51.03943,13.79346,114,0,143.0859,8,5,1379602842,0.06565857,-0.3802643,-0.9421997,-8.949463,-30.64241,-28.23987,152.9233,149.7849,10,-0.002483398,-0.00950642,0.003645335,2.683718,0.07633648,0.3797592,0.003540412,-0.01528664,0.006360392,0.002916758,-0.006592029,-0.03528501,3
2013-09-19 17:00:43.728,139,2.78,51.03943,13.79346,114,0,143.0859,8,5,1379602842,0.06332397,-0.3646545,-0.9654694,-9.21843,-30.10449,-27.67944,152.9018,149.7635,10,0.01727513,0.01315335,-0.008329303,2.683836,0.0758331,0.3795505,-0.01990131,-0.01407402,0.003706864,-0.004588032,-0.007838688,-0.02377406,3
2013-09-19 17:00:43.746,140,2.8,51.03943,13.79346,114,0,143.0859,8,5,1379602842,0.06582642,-0.3773651,-0.9518585,-8.949463,-29.97,-28.23987,152.8299,149.6915,10,0.02119823,0.002772084,-0.033579,2.683408,0.07553434,0.3784327,-0.002374034,-0.01129363,-0.03232652,-0.0003752429,-0.008846674,-0.0280709,3
2013-09-19 17:00:43.786,141,2.82,51.03943,13.79346,114,0,143.0859,8,5,1379602842,0.07926941,-0.3869781,-0.9486542,-8.546005,-29.83553,-28.80026,152.8025,149.6641,10,0.03226659,0.01110192,-0.03470818,2.682894,0.07568281,0.378336,0.003775223,-0.001798323,-0.03351673,0.002398909,-0.00789888,-0.02607734,3
2013-09-19 17:00:43.806,142,2.84,51.03943,13.79346,114,0,143.0859,8,5,1379602842,0.07919312,-0.3889313,-0.945755,-9.151184,-30.03725,-29.01041,152.7615,149.6231,10,-0.009698167,-0.02237508,-0.01326494,2.681509,0.07703564,0.37962,0.02692023,0.02408963,-0.01167091,0.006736171,-0.02236157,-0.02548718,3
2013-09-19 17:00:43.847,143,2.86,51.03943,13.79346,114,0,143.0859,8,5,1379602842,0.08432007,-0.3849792,-0.9601288,-9.352905,-30.10448,-29.92108,152.7084,149.57,10,0.02455435,0.02609365,0.001338238,2.681161,0.07738342,0.3798871,-0.0271163,-0.02694289,-0.01320333,0.01038905,-0.01512494,-0.01978197,3
2013-09-19 17:00:43.866,144,2.88,51.03943,13.79346,114,0,143.0859,8,5,1379602842,0.06660461,-0.3802185,-0.9373474,-9.28566,-30.17172,-29.85101,152.66,149.5216,10,0.01964135,-0.02955869,0.006416088,2.681007,0.0777684,0.3798459,0.009551094,0.0001766658,0.008785346,0.01216764,-0.01420188,-0.03421401,3
2013-09-19 17:00:43.906,145,2.9,51.03943,13.79346,114,0,143.0859,8,5,1379602842,0.06660461,-0.3802185,-0.9373474,-9.420151,-30.03725,-29.71091,152.6069,149.4685,10,-0.0332509,0.01639309,0.004367318,2.680971,0.07762675,0.3798242,0.002225367,-0.03412302,0.006476473,0.004485672,-0.008408458,-0.02375876,3
2013-09-19 17:00:43.926,146,2.92,51.03943,13.79346,114,0,143.0859,8,5,1379602842,0.07403564,-0.3793793,-0.9893036,-8.680481,-30.50792,-29.50076,152.5416,149.4032,10,0.03818387,0.04046487,-0.01186651,2.681483,0.07691295,0.3779469,-0.00991052,0.03111626,-0.01815626,-0.008273436,-0.008474163,-0.04549144,3
2013-09-19 17:00:43.967,147,2.94,51.03943,13.79346,114,0,143.0859,8,5,1379602842,0.08166504,-0.3801727,-0.9746857,-8.680481,-30.50792,-29.50076,152.5416,149.4032,10,0.03827735,-0.01862269,-0.01637152,2.6813,0.07746286,0.3778448,0.02076499,0.03589559,-0.01180436,0.002108854,-0.01046111,-0.06262893,3
2013-09-19 17:00:43.986,148,2.96,51.03943,13.79346,114,0,143.0859,8,5,1379602843,0.08792114,-0.3887787,-0.9397888,-8.949448,-30.50792,-28.94037,152.4885,149.3501,10,0.05047223,-0.003299657,-0.006661898,2.680396,0.07710467,0.3778904,0.01597357,-0.0267199,-0.0199665,0.008804988,-0.0131043,-0.02679235,3
2013-09-19 17:00:44.025,149,2.98,51.03943,13.79346,114,0,143.0859,8,5,1379602843,0.07929993,-0.3810272,-0.9409637,-8.814957,-30.7769,-29.08047,152.4691,149.3307,10,0.05282753,0.02974165,0.001634116,2.680129,0.07715133,0.3783557,0.03305176,-0.007865935,-0.006601018,0.01254392,-0.01651711,-0.02107706,3
2013-09-19 17:00:44.046,150,3,51.03943,13.79346,114,0,143.0859,8,5,1379602843,0.06756592,-0.3772736,-0.9344482,-8.882202,-30.70966,-29.01041,152.4476,149.3092,10,-0.01236719,-0.01551398,0.009603359,2.680058,0.07834725,0.3802695,-0.001566024,-0.01530614,0.01598769,0.001725774,-0.008956223,-0.01243993,3
2013-09-19 17:00:44.086,151,3.02,51.03943,13.79346,114,0,143.0859,8,5,1379602843,0.06756592,-0.3772736,-0.9344482,-9.151184,-30.57516,-29.15048,152.4152,149.2768,10,-0.02089969,-7.376956e-05,-0.0002330266,2.680278,0.07789592,0.3800711,-0.02978345,-0.02007757,0.009663528,-0.005735676,-0.00625652,-0.001896825,3
2013-09-19 17:00:44.106,152,3.04,51.03943,13.79346,114,0,143.0859,8,5,1379602843,0.06565857,-0.3832245,-0.9470062,-8.680481,-30.23897,-29.36066,152.3649,149.2266,10,-0.04187235,0.0471249,0.002896188,2.680662,0.07746863,0.3784168,-0.06418651,0.02480285,0.0029991,-0.005540065,-0.01365268,0.003612148,3
2013-09-19 17:00:44.146,153,3.06,51.03943,13.79346,114,0,143.0859,8,5,1379602843,0.06416321,-0.3804626,-0.9817963,-8.680481,-30.23897,-29.36066,152.3649,149.2266,10,-0.03334757,0.05416816,0.01140286,2.680908,0.07780027,0.3776387,-0.05928351,0.04255971,0.00295741,-0.006586794,-0.01449788,-0.02028011,3
2013-09-19 17:00:44.166,154,3.08,51.03943,13.79346,114,0,143.0859,8,5,1379602843,0.07090759,-0.3872681,-0.9854889,-9.352905,-30.10448,-29.36063,152.2979,149.1596,10,-0.01096077,-0.008211059,-0.01094213,2.681388,0.07835627,0.3754773,-0.02477172,-0.0022062,-0.002447258,-0.0008166,-0.01464629,-0.05897203,3
2013-09-19 17:00:44.207,155,3.1,51.03943,13.79346,114,0,143.0859,8,5,1379602843,0.07402039,-0.3793793,-0.987381,-9.016708,-30.44067,-29.01035,152.2725,149.1342,10,0.02469523,-0.01281646,-0.01051895,2.681343,0.07810621,0.3749203,-0.02837608,-0.01278066,-0.01087943,-0.00157716,-0.01517978,-0.05876562,3
2013-09-19 17:00:44.226,156,3.12,51.03943,13.79346,114,0,143.0859,8,5,1379602843,0.09468079,-0.3846741,-0.9261475,-8.882217,-30.44067,-29.15045,152.2501,149.1118,10,0.07406411,-0.03728958,-0.02914883,2.680687,0.077393,0.3748578,0.03084406,-0.03128249,-0.03184599,0.004133386,-0.01027887,-0.06249068,3
2013-09-19 17:00:44.265,157,3.14,51.03943,13.79346,114,0,143.0859,8,5,1379602843,0.09040833,-0.3845978,-0.8953552,-9.151184,-30.70964,-29.85095,152.2209,149.0825,10,0.01465857,-0.04148646,0.01487562,2.68014,0.07725271,0.3753489,0.0566481,-0.04185867,-0.02908638,0.01381418,-0.01255323,-0.04892707,3
2013-09-19 17:00:44.286,158,3.16,51.03943,13.79346,114,0,143.0859,8,5,1379602843,0.07284546,-0.3703918,-0.9556122,-9.016693,-30.70966,-29.71085,152.1646,149.0262,10,-0.006334595,0.03054965,0.01786901,2.680538,0.07542434,0.3754184,-0.05316473,-0.001251146,0.01050814,0.009790174,-0.01026082,0.02535024,3
2013-09-19 17:00:44.327,159,3.18,51.03943,13.79346,114,0,143.0859,8,5,1379602843,0.07595825,-0.3743744,-0.9767609,-9.016693,-30.70966,-29.71085,152.1646,149.0262,10,0.01100205,0.04732304,0.002278601,2.680813,0.07558993,0.3749322,-0.02374659,0.02598342,0.01793064,0.003412773,-0.003129555,-0.01516367,3
2013-09-19 17:00:44.345,160,3.2,51.03943,13.79346,114,0,143.0859,8,5,1379602843,0.06921387,-0.3794861,-0.9942474,-9.151184,-30.97862,-29.43066,152.1152,148.9768,10,-0.02092632,-0.007205981,0.003426689,2.681085,0.07729418,0.3744885,-0.01508431,0.03436444,0.0107387,0.004092567,-0.008577866,-0.0488448,3
2013-09-19 17:00:44.386,161,3.22,51.03943,13.79346,114,0,143.0859,8,5,1379602843,0.06062317,-0.3677826,-0.9925232,-8.949448,-31.04585,-29.22049,152.1011,148.9628,10,0.044466,-0.05525367,-0.01730921,2.681283,0.07708248,0.3738086,-0.03834048,-0.01177312,0.003488514,-0.002474508,-0.01432241,-0.06606843,3
2013-09-19 17:00:44.406,162,3.24,51.03943,13.79346,114,0,143.0859,8,5,1379602843,0.08206177,-0.3829041,-0.9302673,-8.882217,-30.97862,-29.57074,152.0872,148.9488,10,0.05910833,-0.01388998,-0.008921856,2.680931,0.07540365,0.3744448,0.05526362,-0.02190988,-0.01351817,-0.001005451,-0.00674166,-0.04498678,3
2013-09-19 17:00:44.446,163,3.26,51.03943,13.79346,114,0,143.0859,8,5,1379602843,0.07754517,-0.3702393,-0.9400787,-8.949463,-30.91139,-29.50067,152.0717,148.9333,10,-0.02837385,-0.03690689,0.01436988,2.68068,0.07526925,0.3752854,0.04169536,-0.01845727,-0.008859879,0.007473717,-0.01162051,-0.01708601,3
2013-09-19 17:00:44.466,164,3.28,51.03943,13.79346,114,0,143.0859,8,5,1379602843,0.0697937,-0.3783417,-0.9594879,-8.277023,-30.7769,-29.92099,152.0676,148.9292,10,0.0306402,0.02249572,0.008668856,2.681065,0.07406989,0.3743432,0.009581993,0.004942685,0.005139114,0.008759341,-0.009582857,-0.0272789,3
2013-09-19 17:00:44.506,165,3.3,51.03943,13.79346,114,0,143.0859,8,5,1379602843,0.08047485,-0.3870392,-0.9679108,-8.747726,-30.17172,-30.13113,152.0425,148.9041,10,0.01961631,9.321064e-06,0.006254434,2.681162,0.07423366,0.3745393,0.01322736,0.0179296,0.008730387,0.004660621,-0.01043791,-0.02551541,3
2013-09-19 17:00:44.526,166,3.32,51.03943,13.79346,114,0,143.0859,8,5,1379602843,0.07069397,-0.3822327,-0.9584961,-9.487396,-29.56656,-29.64081,151.9485,148.8101,10,0.01104866,-0.02010314,0.003854127,2.681501,0.07411064,0.3746862,-0.01514325,-0.0213392,0.02311264,0.008730805,-0.01420743,-0.03607385,3
2013-09-19 17:00:44.566,167,3.34,51.03943,13.79346,114,0,143.0859,8,5,1379602843,0.07777405,-0.3683472,-0.9555054,-9.554642,-29.36484,-29.71085,151.8959,148.7576,10,0.03942464,0.01443753,-0.01050324,2.681587,0.07371151,0.3744387,-0.006363356,-0.02466674,0.003914721,0.001388875,-0.007678193,-0.03421659,3
2013-09-19 17:00:44.586,168,3.36,51.03943,13.79346,114,0,143.0859,8,5,1379602843,0.06568909,-0.3782959,-0.9412537,-10.15982,-29.43207,-29.22052,151.8353,148.697,10,0.02222594,-0.0258585,-0.008060856,2.681611,0.07373714,0.374591,-0.00640061,-0.0341761,0.008794682,0.009212206,-0.002455278,-0.02737693,3
2013-09-19 17:00:44.625,169,3.38,51.03943,13.79346,114,0,143.0859,8,5,1379602843,0.07092285,-0.3694458,-0.9575653,-9.756363,-29.29758,-29.08038,151.7838,148.6455,10,-0.01231952,-0.008358331,0.003529221,2.681563,0.07343948,0.3748256,0.002172461,0.03092688,0.006120721,-0.002590182,-0.01218563,-0.01319051,3
2013-09-19 17:00:44.646,170,3.4,51.03943,13.79346,114,0,143.0859,8,5,1379602843,0.07980347,-0.3782806,-0.9795685,-8.814957,-29.83551,-29.64081,151.7599,148.6215,10,0.05403953,0.04985171,0.001537709,2.681614,0.07293733,0.3735796,-0.00256334,0.01808936,-0.01317597,-0.005819451,-0.004586894,-0.02052985,3
2013-09-19 17:00:44.689,171,3.42,51.03943,13.79346,114,0,143.0859,8,5,1379602843,0.06903076,-0.3695068,-0.9634247,-8.545975,-29.56654,-29.5007,151.7413,148.603,10,0.03812288,0.01080178,-0.002048237,2.681518,0.07369933,0.3739193,0.03662449,0.04528797,0.00159813,0.008145841,-0.01298338,-0.03579646,3
2013-09-19 17:00:44.706,172,3.44,51.03943,13.79346,114,0,143.0859,12,5,1379602844,0.07554626,-0.3831329,-0.9564667,-8.008026,-29.56654,-29.64078,151.7346,148.5963,10,0.03823714,-0.009196694,-0.01280182,2.681233,0.07396974,0.3740147,0.009614952,0.01465684,-0.01178907,-0.000815391,-0.007096271,-0.03218766,3
2013-09-19 17:00:44.748,173,3.46,51.03943,13.79346,114,0,143.0859,12,5,1379602844,0.08129883,-0.3810272,-0.9457397,-8.142517,-29.56654,-29.36057,151.7269,148.5885,10,0.03694603,-0.01282072,-0.00555349,2.681015,0.07411805,0.3741542,0.02071433,-0.01367634,-0.01271776,0.005840873,-0.009819793,-0.03305744,3
2013-09-19 17:00:44.766,174,3.48,51.03943,13.79346,114,0,143.0859,12,5,1379602844,0.08718872,-0.3839417,-0.9523621,-8.61322,-29.49931,-28.7301,151.7109,148.5725,10,0.03810238,0.02261689,-0.0009057411,2.680144,0.07426146,0.3751766,0.01943268,-0.0125548,-0.006703333,0.01226627,-0.0145904,-0.01786122,3
2013-09-19 17:00:44.808,175,3.5,51.03943,13.79346,114,0,143.0859,12,5,1379602844,0.08718872,-0.3839417,-0.9523621,-8.61322,-30.17172,-28.7301,151.7048,148.5664,10,0.005972139,0.002196043,0.01936864,2.679895,0.07560192,0.3767562,0.005723838,0.03572598,0.009778905,0.01085273,-0.02197118,-0.01464194,3
2013-09-19 17:00:44.826,176,3.52,51.03943,13.79346,114,0,143.0859,12,5,1379602844,0.06704712,-0.3714752,-0.9614868,-8.882202,-30.57518,-28.44989,151.6983,148.56,10,0.05030978,-0.002295645,0.01143801,2.680662,0.07541361,0.3762781,0.003197802,-0.01280654,0.0172693,-0.001208195,-0.007919973,-0.03018524,3
2013-09-19 17:00:44.866,177,3.54,51.03943,13.79346,114,0,143.0859,12,5,1379602844,0.05419922,-0.3755798,-0.9549866,-8.814957,-30.64241,-28.66003,151.693,148.5547,10,0.06524425,-0.0008586032,-0.008924519,2.68093,0.07509528,0.3763998,0.03275098,-0.006730331,0.01153033,-0.002725419,-0.003900471,-0.03411386,3
2013-09-19 17:00:44.886,178,3.56,51.03943,13.79346,114,0,143.0859,12,5,1379602844,0.06587219,-0.3763885,-0.9537964,-8.209793,-31.51653,-29.2905,151.7171,148.5788,10,0.009921607,0.01196825,-0.01081909,2.681104,0.07391446,0.3772106,-0.007672766,-0.003163625,-0.005838521,-0.005804448,-0.006061077,-0.01415748,3
2013-09-19 17:00:44.929,179,3.58,51.03943,13.79346,114,0,143.0859,12,5,1379602844,0.07756042,-0.3752136,-0.9496918,-8.209793,-31.51653,-29.2905,151.7171,148.5788,10,0.03078401,0.01791988,-0.006997456,2.681009,0.07392179,0.3770619,-0.00763869,0.007527873,-0.01072467,-0.003831647,-0.007191071,-0.01887941,3
2013-09-19 17:00:44.946,180,3.6,51.03943,13.79346,114,0,143.0859,12,5,1379602844,0.07292175,-0.3842926,-0.9844971,-8.075302,-30.70964,-28.73007,151.7446,148.6062,10,-0.002488191,0.02126774,0.001062868,2.680662,0.0745106,0.3774878,-0.005307931,0.002714939,0.0002099327,0.006238953,-0.01450081,-0.01979362,3
2013-09-19 17:00:44.984,181,3.62,51.03943,13.79346,114,0,143.0859,12,5,1379602844,0.0687561,-0.3812866,-0.9595032,-8.344269,-30.70964,-28.30978,151.7534,148.615,10,0.04055408,-0.006977749,0.00290471,2.680704,0.07493607,0.3772601,-0.007811802,0.006207418,0.004991153,0.004937995,-0.01675719,-0.03229746,3
2013-09-19 17:00:45.006,182,3.64,51.03943,13.79346,114,0,143.0859,12,5,1379602844,0.07644653,-0.3821106,-0.9496918,-8.680481,-30.23895,-28.66003,151.7447,148.6063,10,0.05293672,0.002634399,-0.007873636,2.680673,0.07427407,0.3776814,0.0132507,-0.01011095,-0.01158432,-0.00121165,-0.009575418,-0.02582989,3
2013-09-19 17:00:45.047,183,3.66,51.03943,13.79346,114,0,143.0859,12,5,1379602844,0.07914734,-0.3819733,-0.9303436,-8.814957,-29.70102,-28.37982,151.7275,148.5891,10,0.06649061,-0.007938617,-0.01007873,2.680508,0.07427941,0.3778522,0.03534,-0.001790147,-0.007761673,0.002831659,-0.00840953,-0.03643692,3
2013-09-19 17:00:45.066,184,3.68,51.03943,13.79346,114,0,143.0859,12,5,1379602844,0.07041931,-0.3811493,-0.9343719,-9.958084,-29.76825,-29.4306,151.6498,148.5114,10,-0.01355309,0.009389773,0.002211489,2.680117,0.07431284,0.3791587,-0.01387547,-0.02923401,-0.0009193975,0.01017599,-0.01183425,-0.003931161,3
2013-09-19 17:00:45.108,185,3.7,51.03943,13.79346,114,0,143.0859,12,5,1379602844,0.07295227,-0.3773804,-0.9768066,-9.958084,-29.76825,-29.4306,151.6498,148.5114,10,0.01118821,0.03095579,-0.01694436,2.680118,0.0741991,0.3789642,-0.03114702,0.004968361,0.002322496,0.001471704,-0.01016858,0.00176367,3
2013-09-19 17:00:45.126,186,3.72,51.03943,13.79346,114,0,143.0859,12,5,1379602844,0.08338928,-0.3929596,-0.9774933,-9.487381,-29.1631,-30.20114,151.5348,148.3964,10,0.03459766,-0.0162586,-0.01763226,2.679975,0.07507529,0.3780786,0.0009788598,-0.0005788291,-0.0177897,-0.005483378,-0.0113577,-0.05984507,3
2013-09-19 17:00:45.167,187,3.74,51.03943,13.79346,114,0,143.0859,12,5,1379602844,0.0856781,-0.3926849,-0.9214935,-9.487381,-29.1631,-30.20114,151.5348,148.3964,10,0.07870706,-0.04349581,0.002322809,2.679426,0.07486981,0.3786024,0.04881773,-0.0265715,-0.00262845,0.01388657,-0.02333735,-0.05091422,3
2013-09-19 17:00:45.186,188,3.76,51.03943,13.79346,114,0,143.0859,12,5,1379602844,0.07751465,-0.3741913,-0.943924,-9.218414,-29.96999,-30.06107,151.4558,148.3174,10,-0.01743998,0.01507589,0.02386565,2.679638,0.07390233,0.3802411,-0.02769778,-0.02124406,0.02908015,0.005352152,-0.01771063,0.01492305,3
2013-09-19 17:00:45.230,189,3.78,51.03943,13.79346,114,0,143.0859,12,5,1379602844,0.06785583,-0.3704224,-0.9470215,-9.016693,-30.70964,-29.71078,151.4404,148.302,10,0.01443673,0.0292977,0.03259389,2.679963,0.07381582,0.3797549,-0.03505789,0.01071042,0.02399484,0.005785174,-0.00938833,-0.001324892,3
2013-09-19 17:00:45.246,190,3.8,51.03943,13.79346,114,0,143.0859,12,5,1379602844,0.05067444,-0.3569489,-0.957077,-8.814957,-31.71823,-28.51993,151.4559,148.3175,10,-0.008558068,-0.005896505,-0.004892493,2.681374,0.07399388,0.3792727,-0.03012347,0.003711307,0.02169112,-0.0008169081,-0.0001773873,-0.02062918,3
2013-09-19 17:00:45.287,191,3.82,51.03943,13.79346,114,0,143.0859,12,5,1379602844,0.05215454,-0.3785706,-0.9531097,-8.814957,-31.71823,-28.51993,151.4559,148.3175,10,0.01732999,0.01203003,-0.01435817,2.681647,0.07338123,0.3783481,-0.02618909,-0.01020799,-0.004745478,-0.0174558,0.01243707,-0.03030181,3
2013-09-19 17:00:45.307,192,3.84,51.03943,13.79346,114,0,143.0859,12,5,1379602844,0.08045959,-0.3930054,-0.9765778,-8.814972,-31.44928,-28.66,151.4743,148.3359,10,0.01000896,0.03574149,-0.0230193,2.680763,0.07427118,0.3785269,0.003399278,0.0314215,-0.01792067,-0.006236472,-0.01371822,-0.01846578,3
2013-09-19 17:00:45.345,193,3.86,51.03943,13.79346,114,0,143.0859,12,5,1379602844,0.09710693,-0.3967438,-0.9868469,-8.277023,-31.58376,-28.37979,151.499,148.3606,10,0.03701368,-0.01629721,-0.01277652,2.679946,0.07537197,0.3784496,0.004716567,0.01731674,-0.02627917,0.01048734,-0.02352516,-0.04997738,3
2013-09-19 17:00:45.366,194,3.88,51.03943,13.79346,114,0,143.0859,12,5,1379602844,0.0778656,-0.3937683,-0.9235687,-8.411514,-31.31479,-28.80008,151.5133,148.3749,10,0.02197534,-0.009562613,0.01840431,2.679497,0.07464357,0.3793017,0.01435183,-0.05034654,0.003168589,0.01756398,-0.02644133,-0.01824329,3
2013-09-19 17:00:45.409,195,3.9,51.03943,13.79346,114,0,143.0859,12,5,1379602844,0.06378174,-0.3803101,-0.9480133,-8.882233,-31.91997,-29.57065,151.5183,148.3799,10,0.01936118,0.02103578,0.03269403,2.679723,0.07418868,0.3794293,0.004333078,-0.0138202,0.01855755,0.01092405,-0.02531577,0.004736013,3
2013-09-19 17:00:45.427,196,3.92,51.03943,13.79346,114,0,143.0859,12,5,1379602844,0.05656433,-0.3638153,-0.9713898,-8.142548,-32.25616,-29.64072,151.559,148.4206,10,-0.015045,-0.01103001,0.03369192,2.68096,0.07499546,0.380283,0.0005325938,0.02037089,0.02798521,-0.004661608,-0.005220542,-0.02786205,3
